{
"type": "FeatureCollection",
"features": [
{ "type": "Feature", "properties": { "fid": "way/47192516", "name": "喫茶と食事 ひさご", "high_level_category": "amenity", "category": "cafe", "known_bike_parking": "0" }, "geometry": { "type": "Point", "coordinates": [ 136.921039456604944, 35.156812174618686 ] } },
{ "type": "Feature", "properties": { "fid": "way/83593967", "name": "食事喫茶かさすぎ", "high_level_category": "amenity", "category": "cafe", "known_bike_parking": "0" }, "geometry": { "type": "Point", "coordinates": [ 137.575893400252539, 34.97048450378788 ] } },
{ "type": "Feature", "properties": { "fid": "way/87572175", "name": "Cafe Clever", "high_level_category": "amenity", "category": "cafe", "known_bike_parking": "0" }, "geometry": { "type": "Point", "coordinates": [ 135.450388888202554, 34.455725889619934 ] } },
{ "type": "Feature", "properties": { "fid": "way/89182760", "name": "COO & RIKU", "high_level_category": "amenity", "category": "cafe", "known_bike_parking": "0" }, "geometry": { "type": "Point", "coordinates": [ 139.771910730250454, 35.701056352098519 ] } },
{ "type": "Feature", "properties": { "fid": "way/92831859", "name": "つつじヶ丘レストハウス", "high_level_category": "amenity", "category": "cafe", "known_bike_parking": "0" }, "geometry": { "type": "Point", "coordinates": [ 140.119309064421969, 36.21945339443883 ] } },
{ "type": "Feature", "properties": { "fid": "way/97229045", "name": "快活CLUB", "high_level_category": "amenity", "category": "cafe", "known_bike_parking": "0" }, "geometry": { "type": "Point", "coordinates": [ 140.29021065778403, 36.190331670803438 ] } },
{ "type": "Feature", "properties": { "fid": "way/97507449", "name": "GLORIOUS-グロリアス-", "high_level_category": "amenity", "category": "cafe", "known_bike_parking": "0" }, "geometry": { "type": "Point", "coordinates": [ 137.506540500000028, 34.8956435 ] } },
{ "type": "Feature", "properties": { "fid": "way/98572948", "name": "BONO", "high_level_category": "amenity", "category": "cafe", "known_bike_parking": "0" }, "geometry": { "type": "Point", "coordinates": [ 135.391076896753617, 35.476186770317021 ] } },
{ "type": "Feature", "properties": { "fid": "way/104783672", "name": "CAFE&CAKE NOBU", "high_level_category": "amenity", "category": "cafe", "known_bike_parking": "0" }, "geometry": { "type": "Point", "coordinates": [ 136.7745945, 35.2972225 ] } },
{ "type": "Feature", "properties": { "fid": "way/110169529", "name": "ヒルズカフェ", "high_level_category": "amenity", "category": "cafe", "known_bike_parking": "0" }, "geometry": { "type": "Point", "coordinates": [ 136.977884037305415, 35.11205465341849 ] } },
{ "type": "Feature", "properties": { "fid": "way/110353866", "name": "おかげ庵", "high_level_category": "amenity", "category": "cafe", "known_bike_parking": "0" }, "geometry": { "type": "Point", "coordinates": [ 136.916944600436864, 35.123446799524046 ] } },
{ "type": "Feature", "properties": { "fid": "way/120779678", "name": "河苑", "high_level_category": "amenity", "category": "cafe", "known_bike_parking": "0" }, "geometry": { "type": "Point", "coordinates": [ 132.304488, 34.3110795 ] } },
{ "type": "Feature", "properties": { "fid": "way/122391578", "name": "手作り焙煎 珈琲豆", "high_level_category": "amenity", "category": "cafe", "known_bike_parking": "0" }, "geometry": { "type": "Point", "coordinates": [ 139.488530119098954, 35.7234578821366 ] } },
{ "type": "Feature", "properties": { "fid": "way/126215588", "name": "喫茶　伊吹", "high_level_category": "amenity", "category": "cafe", "known_bike_parking": "0" }, "geometry": { "type": "Point", "coordinates": [ 136.790790634451014, 35.30125904522221 ] } },
{ "type": "Feature", "properties": { "fid": "way/129384599", "name": "つり橋茶屋", "high_level_category": "amenity", "category": "cafe", "known_bike_parking": "0" }, "geometry": { "type": "Point", "coordinates": [ 135.762414, 34.103254 ] } },
{ "type": "Feature", "properties": { "fid": "way/132074854", "name": "nido", "high_level_category": "amenity", "category": "cafe", "known_bike_parking": "0" }, "geometry": { "type": "Point", "coordinates": [ 137.3765743016952, 34.815231548115349 ] } },
{ "type": "Feature", "properties": { "fid": "way/134620470", "name": "Andersens", "high_level_category": "amenity", "category": "cafe", "known_bike_parking": "0" }, "geometry": { "type": "Point", "coordinates": [ 140.11971779400784, 36.062901947349324 ] } },
{ "type": "Feature", "properties": { "fid": "way/136608990", "name": "名曲喫茶ライオン", "high_level_category": "amenity", "category": "cafe", "known_bike_parking": "0" }, "geometry": { "type": "Point", "coordinates": [ 139.696363, 35.6592775 ] } },
{ "type": "Feature", "properties": { "fid": "way/136691370", "name": "Brasserie Viron", "high_level_category": "shop", "category": "pastry", "known_bike_parking": "0" }, "geometry": { "type": "Point", "coordinates": [ 139.696824492239216, 35.660914893135114 ] } },
{ "type": "Feature", "properties": { "fid": "way/137083576", "name": "cafe Oral", "high_level_category": "amenity", "category": "cafe", "known_bike_parking": "0" }, "geometry": { "type": "Point", "coordinates": [ 139.695155002563808, 35.660040665403343 ] } },
{ "type": "Feature", "properties": { "fid": "way/137083598", "name": "サイフォンコーヒー　シャルマン", "high_level_category": "amenity", "category": "cafe", "known_bike_parking": "0" }, "geometry": { "type": "Point", "coordinates": [ 139.695010854479335, 35.659982907584251 ] } },
{ "type": "Feature", "properties": { "fid": "way/139072559", "name": "DESSERT CAFE 雪のはな 東京原宿店", "high_level_category": "amenity", "category": "cafe", "known_bike_parking": "0" }, "geometry": { "type": "Point", "coordinates": [ 139.704100590025718, 35.671006207904249 ] } },
{ "type": "Feature", "properties": { "fid": "way/139972325", "name": "Museum Cafe", "high_level_category": "amenity", "category": "cafe", "known_bike_parking": "0" }, "geometry": { "type": "Point", "coordinates": [ 139.717492974575151, 35.66192400086922 ] } },
{ "type": "Feature", "properties": { "fid": "way/142757203", "name": "アグーズカフェ", "high_level_category": "amenity", "category": "cafe", "known_bike_parking": "0" }, "geometry": { "type": "Point", "coordinates": [ 139.707874837002691, 35.653822024333721 ] } },
{ "type": "Feature", "properties": { "fid": "way/143166769", "name": "Canal Cafe", "high_level_category": "amenity", "category": "cafe", "known_bike_parking": "0" }, "geometry": { "type": "Point", "coordinates": [ 139.742740004602211, 35.700043334648257 ] } },
{ "type": "Feature", "properties": { "fid": "way/143944981", "name": "カフェレストラン＆バー　リッツ", "high_level_category": "amenity", "category": "cafe", "known_bike_parking": "0" }, "geometry": { "type": "Point", "coordinates": [ 140.494686040717852, 35.898490526126189 ] } },
{ "type": "Feature", "properties": { "fid": "way/144803817", "name": "高倉町珈琲つくば店", "high_level_category": "amenity", "category": "cafe", "known_bike_parking": "0" }, "geometry": { "type": "Point", "coordinates": [ 140.108121993092226, 36.079471837058101 ] } },
{ "type": "Feature", "properties": { "fid": "way/149732541", "name": "楽羽亭", "high_level_category": "amenity", "category": "cafe", "known_bike_parking": "0" }, "geometry": { "type": "Point", "coordinates": [ 139.707089904585644, 35.685850325981406 ] } },
{ "type": "Feature", "properties": { "fid": "way/150576050", "name": "ブリザード", "high_level_category": "amenity", "category": "cafe", "known_bike_parking": "0" }, "geometry": { "type": "Point", "coordinates": [ 136.919967376154176, 35.152735058967224 ] } },
{ "type": "Feature", "properties": { "fid": "way/150718696", "name": "ル　カフェ名古屋　千種", "high_level_category": "amenity", "category": "cafe", "known_bike_parking": "0" }, "geometry": { "type": "Point", "coordinates": [ 136.924740086924743, 35.163084699050401 ] } },
{ "type": "Feature", "properties": { "fid": "way/150726070", "name": "さかい", "high_level_category": "amenity", "category": "cafe", "known_bike_parking": "0" }, "geometry": { "type": "Point", "coordinates": [ 136.91987625873557, 35.150490908824963 ] } },
{ "type": "Feature", "properties": { "fid": "way/151230519", "name": "トニー", "high_level_category": "amenity", "category": "cafe", "known_bike_parking": "0" }, "geometry": { "type": "Point", "coordinates": [ 136.919877499999984, 35.150792 ] } },
{ "type": "Feature", "properties": { "fid": "way/151230520", "name": "美鈴", "high_level_category": "amenity", "category": "cafe", "known_bike_parking": "0" }, "geometry": { "type": "Point", "coordinates": [ 136.918542621868141, 35.152366166810992 ] } },
{ "type": "Feature", "properties": { "fid": "way/151306973", "name": "ひの", "high_level_category": "amenity", "category": "cafe", "known_bike_parking": "0" }, "geometry": { "type": "Point", "coordinates": [ 136.918300089338487, 35.149954968937827 ] } },
{ "type": "Feature", "properties": { "fid": "way/151481856", "name": "宮越屋珈琲店", "high_level_category": "amenity", "category": "cafe", "known_bike_parking": "0" }, "geometry": { "type": "Point", "coordinates": [ 139.760952420555213, 35.666816917643352 ] } },
{ "type": "Feature", "properties": { "fid": "way/153129381", "name": "OSLO batting Center", "high_level_category": "amenity", "category": "cafe", "known_bike_parking": "0" }, "geometry": { "type": "Point", "coordinates": [ 139.702706571777782, 35.696913883817885 ] } },
{ "type": "Feature", "properties": { "fid": "way/158086609", "name": "ぶーげん", "high_level_category": "amenity", "category": "cafe", "known_bike_parking": "0" }, "geometry": { "type": "Point", "coordinates": [ 139.533836844500172, 35.352342799288223 ] } },
{ "type": "Feature", "properties": { "fid": "way/158845474", "name": "ギャラリーカフェ ベエラ", "high_level_category": "amenity", "category": "cafe", "known_bike_parking": "0" }, "geometry": { "type": "Point", "coordinates": [ 139.93081945022908, 35.837507654016136 ] } },
{ "type": "Feature", "properties": { "fid": "way/160547845", "name": "マッキーポット", "high_level_category": "amenity", "category": "cafe", "known_bike_parking": "0" }, "geometry": { "type": "Point", "coordinates": [ 137.067513, 34.801746 ] } },
{ "type": "Feature", "properties": { "fid": "way/161835208", "name": "ネットカフェ ポパイ", "high_level_category": "amenity", "category": "cafe", "known_bike_parking": "0" }, "geometry": { "type": "Point", "coordinates": [ 135.499978517822228, 34.665105290224716 ] } },
{ "type": "Feature", "properties": { "fid": "way/161840335", "name": "甘精堂", "high_level_category": "amenity", "category": "cafe", "known_bike_parking": "0" }, "geometry": { "type": "Point", "coordinates": [ 138.370692418172865, 36.75758124149705 ] } },
{ "type": "Feature", "properties": { "fid": "way/162373136", "name": "べにや珈琲店", "high_level_category": "amenity", "category": "cafe", "known_bike_parking": "0" }, "geometry": { "type": "Point", "coordinates": [ 136.635808828000592, 35.072376100186872 ] } },
{ "type": "Feature", "properties": { "fid": "way/163219200", "name": "雅楽", "high_level_category": "amenity", "category": "cafe", "known_bike_parking": "0" }, "geometry": { "type": "Point", "coordinates": [ 135.469114748151298, 34.835646210899164 ] } },
{ "type": "Feature", "properties": { "fid": "way/164029718", "name": "DOUTOR", "high_level_category": "amenity", "category": "cafe", "known_bike_parking": "0" }, "geometry": { "type": "Point", "coordinates": [ 139.806118360100101, 35.749397653457081 ] } },
{ "type": "Feature", "properties": { "fid": "way/164595569", "name": "道草珈琲店", "high_level_category": "amenity", "category": "cafe", "known_bike_parking": "0" }, "geometry": { "type": "Point", "coordinates": [ 135.4547695, 34.8121545 ] } },
{ "type": "Feature", "properties": { "fid": "way/165187700", "name": "ガーデンビューロー", "high_level_category": "amenity", "category": "cafe", "known_bike_parking": "0" }, "geometry": { "type": "Point", "coordinates": [ 139.546384280109976, 35.672188501804825 ] } },
{ "type": "Feature", "properties": { "fid": "way/167757595", "name": "天園休憩所", "high_level_category": "amenity", "category": "cafe", "known_bike_parking": "0" }, "geometry": { "type": "Point", "coordinates": [ 139.576422499999978, 35.335306 ] } },
{ "type": "Feature", "properties": { "fid": "way/168737638", "name": "それいゆ", "high_level_category": "amenity", "category": "cafe", "known_bike_parking": "0" }, "geometry": { "type": "Point", "coordinates": [ 138.904163, 35.4243075 ] } },
{ "type": "Feature", "properties": { "fid": "way/170058706", "name": "グリル喫茶グリーン", "high_level_category": "amenity", "category": "cafe", "known_bike_parking": "0" }, "geometry": { "type": "Point", "coordinates": [ 135.772434568296319, 34.981632417769902 ] } },
{ "type": "Feature", "properties": { "fid": "way/170067603", "name": "れもん", "high_level_category": "amenity", "category": "cafe", "known_bike_parking": "0" }, "geometry": { "type": "Point", "coordinates": [ 135.773516142231216, 34.982072556550619 ] } },
{ "type": "Feature", "properties": { "fid": "way/171276067", "name": "喫茶マウンテン", "high_level_category": "amenity", "category": "cafe", "known_bike_parking": "0" }, "geometry": { "type": "Point", "coordinates": [ 139.812634, 35.697867 ] } },
{ "type": "Feature", "properties": { "fid": "way/171494014", "name": "アンティコカフェアルアビス", "high_level_category": "amenity", "category": "cafe", "known_bike_parking": "0" }, "geometry": { "type": "Point", "coordinates": [ 139.628327812515607, 35.612148663176271 ] } },
{ "type": "Feature", "properties": { "fid": "way/174037831", "name": "レ・アントルメ国立", "high_level_category": "amenity", "category": "cafe", "known_bike_parking": "0" }, "geometry": { "type": "Point", "coordinates": [ 139.447327396244305, 35.69088810322679 ] } },
{ "type": "Feature", "properties": { "fid": "way/174456743", "name": "喫茶シャルマン", "high_level_category": "amenity", "category": "cafe", "known_bike_parking": "0" }, "geometry": { "type": "Point", "coordinates": [ 139.771142, 35.707195 ] } },
{ "type": "Feature", "properties": { "fid": "way/174638634", "name": "タイム", "high_level_category": "amenity", "category": "cafe", "known_bike_parking": "0" }, "geometry": { "type": "Point", "coordinates": [ 135.499630828746206, 34.711274651376151 ] } },
{ "type": "Feature", "properties": { "fid": "way/174781832", "name": "黒花堂 梅田茶屋町店", "high_level_category": "amenity", "category": "cafe", "known_bike_parking": "0" }, "geometry": { "type": "Point", "coordinates": [ 135.4990335, 34.707365 ] } },
{ "type": "Feature", "properties": { "fid": "way/175673126", "name": "カフェギャラリーきのね", "high_level_category": "amenity", "category": "cafe", "known_bike_parking": "0" }, "geometry": { "type": "Point", "coordinates": [ 135.504851006579145, 34.708380677861598 ] } },
{ "type": "Feature", "properties": { "fid": "way/178924451", "name": "MORDEN", "high_level_category": "amenity", "category": "cafe", "known_bike_parking": "0" }, "geometry": { "type": "Point", "coordinates": [ 135.511489755891176, 34.706426532415101 ] } },
{ "type": "Feature", "properties": { "fid": "way/178942535", "name": "cafenne", "high_level_category": "amenity", "category": "cafe", "known_bike_parking": "0" }, "geometry": { "type": "Point", "coordinates": [ 135.496091778396448, 34.70673745921863 ] } },
{ "type": "Feature", "properties": { "fid": "way/179622838", "name": "Hokuo", "high_level_category": "amenity", "category": "cafe", "known_bike_parking": "0" }, "geometry": { "type": "Point", "coordinates": [ 139.708792, 35.7285125 ] } },
{ "type": "Feature", "properties": { "fid": "way/180186254", "name": "十一丁目茶屋", "high_level_category": "amenity", "category": "cafe", "known_bike_parking": "0" }, "geometry": { "type": "Point", "coordinates": [ 139.255405761794833, 35.63021964304302 ] } },
{ "type": "Feature", "properties": { "fid": "way/181033648", "name": "アプレシオ 米松店(aprecio)", "high_level_category": "amenity", "category": "cafe", "known_bike_parking": "0" }, "geometry": { "type": "Point", "coordinates": [ 136.243006, 36.0726405 ] } },
{ "type": "Feature", "properties": { "fid": "way/181394851", "name": "タイムリー", "high_level_category": "amenity", "category": "cafe", "known_bike_parking": "0" }, "geometry": { "type": "Point", "coordinates": [ 135.511127474110026, 34.711353998381874 ] } },
{ "type": "Feature", "properties": { "fid": "way/184709915", "name": "コロラド", "high_level_category": "amenity", "category": "cafe", "known_bike_parking": "0" }, "geometry": { "type": "Point", "coordinates": [ 139.646719306132411, 35.55428015676199 ] } },
{ "type": "Feature", "properties": { "fid": "way/186249104", "name": "むさしの森珈琲", "high_level_category": "amenity", "category": "cafe", "known_bike_parking": "0" }, "geometry": { "type": "Point", "coordinates": [ 138.191124222911697, 36.62838803938633 ] } },
{ "type": "Feature", "properties": { "fid": "way/186287267", "name": "珈琲の街", "high_level_category": "amenity", "category": "cafe", "known_bike_parking": "0" }, "geometry": { "type": "Point", "coordinates": [ 140.46657224632537, 37.754912435850066 ] } },
{ "type": "Feature", "properties": { "fid": "way/187643754", "name": "Coffee 和", "high_level_category": "amenity", "category": "cafe", "known_bike_parking": "0" }, "geometry": { "type": "Point", "coordinates": [ 139.776617499999986, 35.6819725 ] } },
{ "type": "Feature", "properties": { "fid": "way/188414471", "name": "藤井工房", "high_level_category": "amenity", "category": "cafe", "known_bike_parking": "0" }, "geometry": { "type": "Point", "coordinates": [ 139.354917737148668, 34.749617214144486 ] } },
{ "type": "Feature", "properties": { "fid": "way/188709903", "name": "喫茶シャトレ", "high_level_category": "amenity", "category": "cafe", "known_bike_parking": "0" }, "geometry": { "type": "Point", "coordinates": [ 135.421450704552029, 34.781439535826379 ] } },
{ "type": "Feature", "properties": { "fid": "way/189024631", "name": "七ツ塚ファーマーズセンター(Nanatuzuka Farmers Center)", "high_level_category": "amenity", "category": "cafe", "known_bike_parking": "0" }, "geometry": { "type": "Point", "coordinates": [ 139.37844645074756, 35.681575657408942 ] } },
{ "type": "Feature", "properties": { "fid": "way/191660173", "name": "LONCAFE", "high_level_category": "amenity", "category": "cafe", "known_bike_parking": "0" }, "geometry": { "type": "Point", "coordinates": [ 139.480033696339802, 35.299851067724809 ] } },
{ "type": "Feature", "properties": { "fid": "way/192081674", "name": "モルカフェ", "high_level_category": "amenity", "category": "cafe", "known_bike_parking": "0" }, "geometry": { "type": "Point", "coordinates": [ 137.406997, 34.8286945 ] } },
{ "type": "Feature", "properties": { "fid": "way/193054179", "name": "TATATEA", "high_level_category": "amenity", "category": "cafe", "known_bike_parking": "0" }, "geometry": { "type": "Point", "coordinates": [ 139.645518997735707, 35.554196422238121 ] } },
{ "type": "Feature", "properties": { "fid": "way/195518512", "name": "あっしゅ", "high_level_category": "amenity", "category": "cafe", "known_bike_parking": "0" }, "geometry": { "type": "Point", "coordinates": [ 136.246275199891926, 36.093813158893717 ] } },
{ "type": "Feature", "properties": { "fid": "way/197315531", "name": "フジカフェ", "high_level_category": "amenity", "category": "cafe", "known_bike_parking": "0" }, "geometry": { "type": "Point", "coordinates": [ 139.354847393201339, 34.751072255874959 ] } },
{ "type": "Feature", "properties": { "fid": "way/198692617", "name": "甘党　のと路", "high_level_category": "amenity", "category": "cafe", "known_bike_parking": "0" }, "geometry": { "type": "Point", "coordinates": [ 136.646333386482667, 36.589822890369668 ] } },
{ "type": "Feature", "properties": { "fid": "way/199045350", "name": "AirsCafe", "high_level_category": "amenity", "category": "cafe", "known_bike_parking": "0" }, "geometry": { "type": "Point", "coordinates": [ 136.220967327002683, 36.136662233400273 ] } },
{ "type": "Feature", "properties": { "fid": "way/199754807", "name": "cafe fica", "high_level_category": "amenity", "category": "cafe", "known_bike_parking": "0" }, "geometry": { "type": "Point", "coordinates": [ 137.201976246411846, 36.668073719279853 ] } },
{ "type": "Feature", "properties": { "fid": "way/200117851", "name": "cafe branch", "high_level_category": "amenity", "category": "cafe", "known_bike_parking": "0" }, "geometry": { "type": "Point", "coordinates": [ 136.896824411522601, 35.170929405256267 ] } },
{ "type": "Feature", "properties": { "fid": "way/201101192", "name": "Time", "high_level_category": "amenity", "category": "cafe", "known_bike_parking": "0" }, "geometry": { "type": "Point", "coordinates": [ 135.711502, 34.931186 ] } },
{ "type": "Feature", "properties": { "fid": "way/201101790", "name": "アドニス", "high_level_category": "amenity", "category": "cafe", "known_bike_parking": "0" }, "geometry": { "type": "Point", "coordinates": [ 135.699711, 34.94009 ] } },
{ "type": "Feature", "properties": { "fid": "way/201409743", "name": "cafe de フローレンス", "high_level_category": "amenity", "category": "cafe", "known_bike_parking": "0" }, "geometry": { "type": "Point", "coordinates": [ 135.712112950003956, 34.933303517889584 ] } },
{ "type": "Feature", "properties": { "fid": "way/201574097", "name": "珈琲館 wada", "high_level_category": "amenity", "category": "cafe", "known_bike_parking": "0" }, "geometry": { "type": "Point", "coordinates": [ 135.710745116772841, 34.938740749469218 ] } },
{ "type": "Feature", "properties": { "fid": "way/201722042", "name": "秋月", "high_level_category": "amenity", "category": "cafe", "known_bike_parking": "0" }, "geometry": { "type": "Point", "coordinates": [ 135.703631500000029, 34.940685 ] } },
{ "type": "Feature", "properties": { "fid": "way/201745023", "name": "コアラ", "high_level_category": "amenity", "category": "cafe", "known_bike_parking": "0" }, "geometry": { "type": "Point", "coordinates": [ 135.711510768111538, 34.942778316958176 ] } },
{ "type": "Feature", "properties": { "fid": "way/201852895", "name": "パセリ", "high_level_category": "amenity", "category": "cafe", "known_bike_parking": "0" }, "geometry": { "type": "Point", "coordinates": [ 135.712007045549257, 34.946768492730968 ] } },
{ "type": "Feature", "properties": { "fid": "way/201852948", "name": "ハーモニー", "high_level_category": "amenity", "category": "cafe", "known_bike_parking": "0" }, "geometry": { "type": "Point", "coordinates": [ 135.712010001706489, 34.945897697952226 ] } },
{ "type": "Feature", "properties": { "fid": "way/202488040", "name": "工芸樹", "high_level_category": "amenity", "category": "cafe", "known_bike_parking": "0" }, "geometry": { "type": "Point", "coordinates": [ 135.697490749078753, 34.965103248406152 ] } },
{ "type": "Feature", "properties": { "fid": "way/202527744", "name": "あい", "high_level_category": "amenity", "category": "cafe", "known_bike_parking": "0" }, "geometry": { "type": "Point", "coordinates": [ 135.70046450000001, 34.949792 ] } },
{ "type": "Feature", "properties": { "fid": "way/202529497", "name": "縁かいな", "high_level_category": "amenity", "category": "cafe", "known_bike_parking": "0" }, "geometry": { "type": "Point", "coordinates": [ 135.703012935075208, 34.950665786284176 ] } },
{ "type": "Feature", "properties": { "fid": "way/202769890", "name": "あらびか", "high_level_category": "amenity", "category": "cafe", "known_bike_parking": "0" }, "geometry": { "type": "Point", "coordinates": [ 137.372723533270857, 34.814034613300187 ] } },
{ "type": "Feature", "properties": { "fid": "way/202850335", "name": "エルザスコーヒー", "high_level_category": "amenity", "category": "cafe", "known_bike_parking": "0" }, "geometry": { "type": "Point", "coordinates": [ 136.186128893439189, 35.945427260203374 ] } },
{ "type": "Feature", "properties": { "fid": "way/202897673", "name": "ブラジル", "high_level_category": "amenity", "category": "cafe", "known_bike_parking": "0" }, "geometry": { "type": "Point", "coordinates": [ 135.7033645, 34.946914 ] } },
{ "type": "Feature", "properties": { "fid": "way/202927314", "name": "Cafe Du Mew", "high_level_category": "amenity", "category": "cafe", "known_bike_parking": "0" }, "geometry": { "type": "Point", "coordinates": [ 135.701709548717957, 34.942801369230772 ] } },
{ "type": "Feature", "properties": { "fid": "way/202927352", "name": "ちゃばなCafe", "high_level_category": "amenity", "category": "cafe", "known_bike_parking": "0" }, "geometry": { "type": "Point", "coordinates": [ 135.700607, 34.9439255 ] } },
{ "type": "Feature", "properties": { "fid": "way/203043949", "name": "ルナ", "high_level_category": "amenity", "category": "cafe", "known_bike_parking": "0" }, "geometry": { "type": "Point", "coordinates": [ 135.704754499999979, 34.9530365 ] } },
{ "type": "Feature", "properties": { "fid": "way/203330859", "name": "COLORAD COFFEE SHOP", "high_level_category": "amenity", "category": "cafe", "known_bike_parking": "0" }, "geometry": { "type": "Point", "coordinates": [ 135.705580118432778, 34.952495248738494 ] } },
{ "type": "Feature", "properties": { "fid": "way/203331568", "name": "紀の国屋", "high_level_category": "amenity", "category": "cafe", "known_bike_parking": "0" }, "geometry": { "type": "Point", "coordinates": [ 135.706047500000011, 34.952858 ] } },
{ "type": "Feature", "properties": { "fid": "way/203482433", "name": "喫茶&陶芸 それいゆ", "high_level_category": "amenity", "category": "cafe", "known_bike_parking": "0" }, "geometry": { "type": "Point", "coordinates": [ 135.757755176003712, 35.084841325746964 ] } },
{ "type": "Feature", "properties": { "fid": "way/203555052", "name": "快活CLUB", "high_level_category": "amenity", "category": "cafe", "known_bike_parking": "0" }, "geometry": { "type": "Point", "coordinates": [ 135.716685572239953, 34.94422783741706 ] } },
{ "type": "Feature", "properties": { "fid": "way/203855171", "name": "あんづ", "high_level_category": "amenity", "category": "cafe", "known_bike_parking": "0" }, "geometry": { "type": "Point", "coordinates": [ 135.7055205, 34.9523695 ] } },
{ "type": "Feature", "properties": { "fid": "way/203855229", "name": "ドリーム", "high_level_category": "amenity", "category": "cafe", "known_bike_parking": "0" }, "geometry": { "type": "Point", "coordinates": [ 135.705249863106673, 34.952278313572428 ] } },
{ "type": "Feature", "properties": { "fid": "way/204193867", "name": "キャンドル", "high_level_category": "amenity", "category": "cafe", "known_bike_parking": "0" }, "geometry": { "type": "Point", "coordinates": [ 137.391191033767257, 34.828569982949993 ] } },
{ "type": "Feature", "properties": { "fid": "way/204346520", "name": "ふみ喫茶", "high_level_category": "amenity", "category": "cafe", "known_bike_parking": "0" }, "geometry": { "type": "Point", "coordinates": [ 135.708308243586515, 34.955736626461437 ] } },
{ "type": "Feature", "properties": { "fid": "way/204638821", "name": "ぶるまん", "high_level_category": "amenity", "category": "cafe", "known_bike_parking": "0" }, "geometry": { "type": "Point", "coordinates": [ 135.705190244089124, 34.95380475440755 ] } },
{ "type": "Feature", "properties": { "fid": "way/205011021", "name": "オリーブ", "high_level_category": "amenity", "category": "cafe", "known_bike_parking": "0" }, "geometry": { "type": "Point", "coordinates": [ 135.704849804230349, 34.955456743439093 ] } },
{ "type": "Feature", "properties": { "fid": "way/205586731", "name": "カフェテラスFZ", "high_level_category": "amenity", "category": "cafe", "known_bike_parking": "0" }, "geometry": { "type": "Point", "coordinates": [ 135.828696787012547, 34.692628373010017 ] } },
{ "type": "Feature", "properties": { "fid": "way/205749184", "name": "Lipton Tea House", "high_level_category": "amenity", "category": "cafe", "known_bike_parking": "0" }, "geometry": { "type": "Point", "coordinates": [ 135.766749247152347, 35.003881424283847 ] } },
{ "type": "Feature", "properties": { "fid": "way/205889071", "name": "わらしべ", "high_level_category": "amenity", "category": "cafe", "known_bike_parking": "0" }, "geometry": { "type": "Point", "coordinates": [ 135.417547685304214, 34.748018671509485 ] } },
{ "type": "Feature", "properties": { "fid": "way/206061570", "name": "ちてはこcafe", "high_level_category": "amenity", "category": "cafe", "known_bike_parking": "0" }, "geometry": { "type": "Point", "coordinates": [ 135.8279915, 34.6921285 ] } },
{ "type": "Feature", "properties": { "fid": "way/206084180", "name": "ちちろ", "high_level_category": "amenity", "category": "cafe", "known_bike_parking": "0" }, "geometry": { "type": "Point", "coordinates": [ 135.831273114541517, 34.687344370852166 ] } },
{ "type": "Feature", "properties": { "fid": "way/206187535", "name": "コーヒーショップ路", "high_level_category": "amenity", "category": "cafe", "known_bike_parking": "0" }, "geometry": { "type": "Point", "coordinates": [ 137.412505431372551, 34.841362985294118 ] } },
{ "type": "Feature", "properties": { "fid": "way/206283457", "name": "もり", "high_level_category": "amenity", "category": "cafe", "known_bike_parking": "0" }, "geometry": { "type": "Point", "coordinates": [ 135.708263444183785, 34.958188718670577 ] } },
{ "type": "Feature", "properties": { "fid": "way/206347042", "name": "CAFE SHALOM", "high_level_category": "amenity", "category": "cafe", "known_bike_parking": "0" }, "geometry": { "type": "Point", "coordinates": [ 135.834784973333342, 34.690409333333335 ] } },
{ "type": "Feature", "properties": { "fid": "way/207284025", "name": "ハウゼ", "high_level_category": "amenity", "category": "cafe", "known_bike_parking": "0" }, "geometry": { "type": "Point", "coordinates": [ 139.930419833093964, 37.489986507324552 ] } },
{ "type": "Feature", "properties": { "fid": "way/207549768", "name": "BON", "high_level_category": "amenity", "category": "cafe", "known_bike_parking": "0" }, "geometry": { "type": "Point", "coordinates": [ 136.214970788546424, 36.066780124529352 ] } },
{ "type": "Feature", "properties": { "fid": "way/207705575", "name": "七福", "high_level_category": "amenity", "category": "cafe", "known_bike_parking": "0" }, "geometry": { "type": "Point", "coordinates": [ 136.21845986420297, 36.066145681995032 ] } },
{ "type": "Feature", "properties": { "fid": "way/208020108", "name": "Barbizon", "high_level_category": "amenity", "category": "cafe", "known_bike_parking": "0" }, "geometry": { "type": "Point", "coordinates": [ 135.770237318998738, 34.722033155861588 ] } },
{ "type": "Feature", "properties": { "fid": "way/208499110", "name": "コメダ珈琲店", "high_level_category": "amenity", "category": "cafe", "known_bike_parking": "0" }, "geometry": { "type": "Point", "coordinates": [ 137.345344556274966, 34.803031367390979 ] } },
{ "type": "Feature", "properties": { "fid": "way/211088886", "name": "はまゆう", "high_level_category": "amenity", "category": "cafe", "known_bike_parking": "0" }, "geometry": { "type": "Point", "coordinates": [ 140.566550273098244, 36.313960689930596 ] } },
{ "type": "Feature", "properties": { "fid": "way/211237361", "name": "さいもん", "high_level_category": "amenity", "category": "cafe", "known_bike_parking": "0" }, "geometry": { "type": "Point", "coordinates": [ 137.388854366950937, 34.825214058601269 ] } },
{ "type": "Feature", "properties": { "fid": "way/215975505", "name": "シフォンケーキ専門店 MeMe", "high_level_category": "amenity", "category": "cafe", "known_bike_parking": "0" }, "geometry": { "type": "Point", "coordinates": [ 138.425031272527292, 36.328261425923969 ] } },
{ "type": "Feature", "properties": { "fid": "way/218093866", "name": "Toki seven tea", "high_level_category": "amenity", "category": "cafe", "known_bike_parking": "0" }, "geometry": { "type": "Point", "coordinates": [ 139.721643821877336, 35.650623862527723 ] } },
{ "type": "Feature", "properties": { "fid": "way/218253187", "name": "四海浪売店", "high_level_category": "amenity", "category": "cafe", "known_bike_parking": "0" }, "geometry": { "type": "Point", "coordinates": [ 138.417440043570792, 36.325809075496714 ] } },
{ "type": "Feature", "properties": { "fid": "way/219092988", "name": "インターネット・まんが喫茶 ZZZZ", "high_level_category": "amenity", "category": "cafe", "known_bike_parking": "0" }, "geometry": { "type": "Point", "coordinates": [ 138.232821199722139, 36.654657821143346 ] } },
{ "type": "Feature", "properties": { "fid": "way/219222175", "name": "おまめ喫茶 そいてい", "high_level_category": "amenity", "category": "cafe", "known_bike_parking": "0" }, "geometry": { "type": "Point", "coordinates": [ 138.238072499999987, 36.6534025 ] } },
{ "type": "Feature", "properties": { "fid": "way/219723186", "name": "さと乃茶屋", "high_level_category": "amenity", "category": "cafe", "known_bike_parking": "0" }, "geometry": { "type": "Point", "coordinates": [ 137.424520765733121, 34.876377437022036 ] } },
{ "type": "Feature", "properties": { "fid": "way/220090963", "name": "渚", "high_level_category": "amenity", "category": "cafe", "known_bike_parking": "0" }, "geometry": { "type": "Point", "coordinates": [ 135.473652251282033, 34.748609287179484 ] } },
{ "type": "Feature", "properties": { "fid": "way/220090971", "name": "水車", "high_level_category": "amenity", "category": "cafe", "known_bike_parking": "0" }, "geometry": { "type": "Point", "coordinates": [ 135.474702737193752, 34.748586862657753 ] } },
{ "type": "Feature", "properties": { "fid": "way/220097596", "name": "きよ", "high_level_category": "amenity", "category": "cafe", "known_bike_parking": "0" }, "geometry": { "type": "Point", "coordinates": [ 135.476043979735294, 34.748764227874275 ] } },
{ "type": "Feature", "properties": { "fid": "way/220097615", "name": "エアーホルク", "high_level_category": "amenity", "category": "cafe", "known_bike_parking": "0" }, "geometry": { "type": "Point", "coordinates": [ 135.474736263845017, 34.749204575279009 ] } },
{ "type": "Feature", "properties": { "fid": "way/220108485", "name": "パーラストン", "high_level_category": "amenity", "category": "cafe", "known_bike_parking": "0" }, "geometry": { "type": "Point", "coordinates": [ 135.512073035016812, 34.712942715151506 ] } },
{ "type": "Feature", "properties": { "fid": "way/220186737", "name": "パール", "high_level_category": "amenity", "category": "cafe", "known_bike_parking": "0" }, "geometry": { "type": "Point", "coordinates": [ 135.47527897060786, 34.750059549766199 ] } },
{ "type": "Feature", "properties": { "fid": "way/220971677", "name": "珈琲庵", "high_level_category": "amenity", "category": "cafe", "known_bike_parking": "0" }, "geometry": { "type": "Point", "coordinates": [ 140.315420527431627, 35.778229595189238 ] } },
{ "type": "Feature", "properties": { "fid": "way/221998258", "name": "西洋菓子シェール　Chere", "high_level_category": "amenity", "category": "cafe", "known_bike_parking": "0" }, "geometry": { "type": "Point", "coordinates": [ 135.511278, 34.7024865 ] } },
{ "type": "Feature", "properties": { "fid": "way/224883906", "name": "ONE-UP", "high_level_category": "amenity", "category": "cafe", "known_bike_parking": "0" }, "geometry": { "type": "Point", "coordinates": [ 135.481781, 34.7205995 ] } },
{ "type": "Feature", "properties": { "fid": "way/225641395", "name": "カフス", "high_level_category": "amenity", "category": "cafe", "known_bike_parking": "0" }, "geometry": { "type": "Point", "coordinates": [ 134.557308681903208, 34.042295116546384 ] } },
{ "type": "Feature", "properties": { "fid": "way/226005126", "name": "42195 COFFEE", "high_level_category": "amenity", "category": "cafe", "known_bike_parking": "0" }, "geometry": { "type": "Point", "coordinates": [ 135.4937555, 34.7123735 ] } },
{ "type": "Feature", "properties": { "fid": "way/226331942", "name": "カフェドゥ・カンパーニュ", "high_level_category": "amenity", "category": "cafe", "known_bike_parking": "0" }, "geometry": { "type": "Point", "coordinates": [ 134.544356333776022, 34.047988382863601 ] } },
{ "type": "Feature", "properties": { "fid": "way/226504231", "name": "珈亜・ガーデン", "high_level_category": "amenity", "category": "cafe", "known_bike_parking": "0" }, "geometry": { "type": "Point", "coordinates": [ 134.550571728991827, 34.050909878309248 ] } },
{ "type": "Feature", "properties": { "fid": "way/226828602", "name": "珈琲人", "high_level_category": "amenity", "category": "cafe", "known_bike_parking": "0" }, "geometry": { "type": "Point", "coordinates": [ 135.492140508299173, 34.712135659050972 ] } },
{ "type": "Feature", "properties": { "fid": "way/228077143", "name": "タニ", "high_level_category": "amenity", "category": "cafe", "known_bike_parking": "0" }, "geometry": { "type": "Point", "coordinates": [ 135.490688759350945, 34.711890357948292 ] } },
{ "type": "Feature", "properties": { "fid": "way/228165116", "name": "日記館", "high_level_category": "amenity", "category": "cafe", "known_bike_parking": "0" }, "geometry": { "type": "Point", "coordinates": [ 132.769580842900183, 33.821905081414137 ] } },
{ "type": "Feature", "properties": { "fid": "way/229252612", "name": "LA・LIBERTE", "high_level_category": "amenity", "category": "cafe", "known_bike_parking": "0" }, "geometry": { "type": "Point", "coordinates": [ 135.832018249772915, 34.687564044504988 ] } },
{ "type": "Feature", "properties": { "fid": "way/229480181", "name": "松川屋", "high_level_category": "amenity", "category": "cafe", "known_bike_parking": "0" }, "geometry": { "type": "Point", "coordinates": [ 139.861224394860443, 37.333701140845569 ] } },
{ "type": "Feature", "properties": { "fid": "way/229567077", "name": "PinetailCafe", "high_level_category": "amenity", "category": "cafe", "known_bike_parking": "0" }, "geometry": { "type": "Point", "coordinates": [ 139.911973852196695, 37.366627261684265 ] } },
{ "type": "Feature", "properties": { "fid": "way/229637487", "name": "葉音", "high_level_category": "amenity", "category": "cafe", "known_bike_parking": "0" }, "geometry": { "type": "Point", "coordinates": [ 135.830785499999962, 34.688832 ] } },
{ "type": "Feature", "properties": { "fid": "way/231125864", "name": "スターバックスコーヒー 松山湊町店", "high_level_category": "amenity", "category": "cafe", "known_bike_parking": "0" }, "geometry": { "type": "Point", "coordinates": [ 132.758388070544584, 33.835429427461499 ] } },
{ "type": "Feature", "properties": { "fid": "way/231174026", "name": "シャンテ", "high_level_category": "amenity", "category": "cafe", "known_bike_parking": "0" }, "geometry": { "type": "Point", "coordinates": [ 136.91728752872686, 35.139814561116047 ] } },
{ "type": "Feature", "properties": { "fid": "way/231220036", "name": "たんぽぽ", "high_level_category": "amenity", "category": "cafe", "known_bike_parking": "0" }, "geometry": { "type": "Point", "coordinates": [ 136.919963240215168, 35.138714119365609 ] } },
{ "type": "Feature", "properties": { "fid": "way/233581830", "name": "スイス本店", "high_level_category": "amenity", "category": "cafe", "known_bike_parking": "0" }, "geometry": { "type": "Point", "coordinates": [ 135.483010150550371, 34.57495172343156 ] } },
{ "type": "Feature", "properties": { "fid": "way/235396735", "name": "珈琲屋らんぷ 可児店", "high_level_category": "amenity", "category": "cafe", "known_bike_parking": "0" }, "geometry": { "type": "Point", "coordinates": [ 137.033801633175813, 35.416676558318336 ] } },
{ "type": "Feature", "properties": { "fid": "way/235936361", "name": "Cafe Iroha", "high_level_category": "amenity", "category": "cafe", "known_bike_parking": "0" }, "geometry": { "type": "Point", "coordinates": [ 135.486449079973852, 34.559233492339764 ] } },
{ "type": "Feature", "properties": { "fid": "way/236248662", "name": "文化喫茶 郷愁", "high_level_category": "amenity", "category": "cafe", "known_bike_parking": "0" }, "geometry": { "type": "Point", "coordinates": [ 136.905956460454121, 36.256132822712445 ] } },
{ "type": "Feature", "properties": { "fid": "way/236248701", "name": "民宿 利兵衛", "high_level_category": "amenity", "category": "cafe", "known_bike_parking": "0" }, "geometry": { "type": "Point", "coordinates": [ 136.9055325, 36.2565545 ] } },
{ "type": "Feature", "properties": { "fid": "way/236248703", "name": "ぜん", "high_level_category": "amenity", "category": "cafe", "known_bike_parking": "0" }, "geometry": { "type": "Point", "coordinates": [ 136.906692092409259, 36.258891719471954 ] } },
{ "type": "Feature", "properties": { "fid": "way/236356321", "name": "エスプリ・ド・ビゴ", "high_level_category": "shop", "category": "bakery", "known_bike_parking": "0" }, "geometry": { "type": "Point", "coordinates": [ 139.664776207854914, 35.602092962821217 ] } },
{ "type": "Feature", "properties": { "fid": "way/236802418", "name": "きっさきょってい", "high_level_category": "amenity", "category": "cafe", "known_bike_parking": "0" }, "geometry": { "type": "Point", "coordinates": [ 135.83280243622616, 34.677399062523563 ] } },
{ "type": "Feature", "properties": { "fid": "way/237503659", "name": "喫茶モーニング", "high_level_category": "amenity", "category": "cafe", "known_bike_parking": "0" }, "geometry": { "type": "Point", "coordinates": [ 136.873919729362825, 35.170289815599489 ] } },
{ "type": "Feature", "properties": { "fid": "way/239261291", "name": "壹番館", "high_level_category": "amenity", "category": "cafe", "known_bike_parking": "0" }, "geometry": { "type": "Point", "coordinates": [ 135.71405352851005, 34.690033896351359 ] } },
{ "type": "Feature", "properties": { "fid": "way/239279321", "name": "まんが喫茶キャプテン", "high_level_category": "amenity", "category": "cafe", "known_bike_parking": "0" }, "geometry": { "type": "Point", "coordinates": [ 136.812945455411352, 35.299525812496043 ] } },
{ "type": "Feature", "properties": { "fid": "way/239527176", "name": "喫茶 こだま", "high_level_category": "amenity", "category": "cafe", "known_bike_parking": "0" }, "geometry": { "type": "Point", "coordinates": [ 135.684276670153849, 34.775939008820508 ] } },
{ "type": "Feature", "properties": { "fid": "way/240574182", "name": "かわばた", "high_level_category": "amenity", "category": "cafe", "known_bike_parking": "0" }, "geometry": { "type": "Point", "coordinates": [ 134.699087551591418, 34.834589100272915 ] } },
{ "type": "Feature", "properties": { "fid": "way/242589435", "name": "イエティ カフェ 3776", "high_level_category": "amenity", "category": "cafe", "known_bike_parking": "0" }, "geometry": { "type": "Point", "coordinates": [ 138.768572, 35.299723 ] } },
{ "type": "Feature", "properties": { "fid": "way/242696557", "name": "cafe tac", "high_level_category": "amenity", "category": "cafe", "known_bike_parking": "0" }, "geometry": { "type": "Point", "coordinates": [ 138.086610218487351, 36.07666458813155 ] } },
{ "type": "Feature", "properties": { "fid": "way/242941462", "name": "cafe? IKAGAWA DO", "high_level_category": "amenity", "category": "cafe", "known_bike_parking": "0" }, "geometry": { "type": "Point", "coordinates": [ 136.624288652366602, 36.529840480242996 ] } },
{ "type": "Feature", "properties": { "fid": "way/243618460", "name": "BABA'S CAFE", "high_level_category": "amenity", "category": "cafe", "known_bike_parking": "0" }, "geometry": { "type": "Point", "coordinates": [ 135.724971722098957, 34.687726785894441 ] } },
{ "type": "Feature", "properties": { "fid": "way/244506892", "name": "木の花", "high_level_category": "amenity", "category": "cafe", "known_bike_parking": "0" }, "geometry": { "type": "Point", "coordinates": [ 137.737222, 34.7079635 ] } },
{ "type": "Feature", "properties": { "fid": "way/244640610", "name": "コメダ珈琲店 岩倉八剱店", "high_level_category": "amenity", "category": "cafe", "known_bike_parking": "0" }, "geometry": { "type": "Point", "coordinates": [ 136.879894279286276, 35.292878085985237 ] } },
{ "type": "Feature", "properties": { "fid": "way/244753751", "name": "Karankoron Tourist Information Center", "high_level_category": "amenity", "category": "cafe", "known_bike_parking": "0" }, "geometry": { "type": "Point", "coordinates": [ 139.646462500000013, 37.4720205 ] } },
{ "type": "Feature", "properties": { "fid": "way/246241745", "name": "伊右衛門サロン京都", "high_level_category": "amenity", "category": "cafe", "known_bike_parking": "0" }, "geometry": { "type": "Point", "coordinates": [ 135.75895210420461, 35.008350385890324 ] } },
{ "type": "Feature", "properties": { "fid": "way/246322147", "name": "トミー", "high_level_category": "amenity", "category": "cafe", "known_bike_parking": "0" }, "geometry": { "type": "Point", "coordinates": [ 137.395286866184023, 34.824317831742896 ] } },
{ "type": "Feature", "properties": { "fid": "way/246901716", "name": "DFMジュース", "high_level_category": "amenity", "category": "cafe", "known_bike_parking": "0" }, "geometry": { "type": "Point", "coordinates": [ 135.477919487615708, 34.549722186723379 ] } },
{ "type": "Feature", "properties": { "fid": "way/247414156", "name": "茶房ほっ", "high_level_category": "amenity", "category": "cafe", "known_bike_parking": "0" }, "geometry": { "type": "Point", "coordinates": [ 137.699745136164978, 34.72362465738879 ] } },
{ "type": "Feature", "properties": { "fid": "way/249005222", "name": "喫茶ホワイト", "high_level_category": "amenity", "category": "cafe", "known_bike_parking": "0" }, "geometry": { "type": "Point", "coordinates": [ 135.476939398080447, 34.549620328735458 ] } },
{ "type": "Feature", "properties": { "fid": "way/250699257", "name": "平川茶屋", "high_level_category": "amenity", "category": "cafe", "known_bike_parking": "0" }, "geometry": { "type": "Point", "coordinates": [ 137.3932805, 34.8236905 ] } },
{ "type": "Feature", "properties": { "fid": "way/250699269", "name": "穂の国", "high_level_category": "amenity", "category": "cafe", "known_bike_parking": "0" }, "geometry": { "type": "Point", "coordinates": [ 137.392662004895158, 34.823728029159355 ] } },
{ "type": "Feature", "properties": { "fid": "way/251446261", "name": "喫茶ボギー", "high_level_category": "amenity", "category": "cafe", "known_bike_parking": "0" }, "geometry": { "type": "Point", "coordinates": [ 134.244117843015573, 35.472211740217212 ] } },
{ "type": "Feature", "properties": { "fid": "way/251840814", "name": "ヒーローズカフェ", "high_level_category": "amenity", "category": "cafe", "known_bike_parking": "0" }, "geometry": { "type": "Point", "coordinates": [ 136.167399113765356, 34.97166127657772 ] } },
{ "type": "Feature", "properties": { "fid": "way/252904256", "name": "kei", "high_level_category": "amenity", "category": "cafe", "known_bike_parking": "0" }, "geometry": { "type": "Point", "coordinates": [ 137.395775013075848, 34.823555176423255 ] } },
{ "type": "Feature", "properties": { "fid": "way/252988459", "name": "あわじ", "high_level_category": "amenity", "category": "cafe", "known_bike_parking": "0" }, "geometry": { "type": "Point", "coordinates": [ 137.395920653742792, 34.823144202513639 ] } },
{ "type": "Feature", "properties": { "fid": "way/253521126", "name": "猫魔カフェ", "high_level_category": "amenity", "category": "cafe", "known_bike_parking": "0" }, "geometry": { "type": "Point", "coordinates": [ 140.041052739178355, 37.607221596558944 ] } },
{ "type": "Feature", "properties": { "fid": "way/253623948", "name": "明日香", "high_level_category": "amenity", "category": "cafe", "known_bike_parking": "0" }, "geometry": { "type": "Point", "coordinates": [ 134.586357192572365, 34.832310486338194 ] } },
{ "type": "Feature", "properties": { "fid": "way/253818284", "name": "まるや", "high_level_category": "amenity", "category": "cafe", "known_bike_parking": "0" }, "geometry": { "type": "Point", "coordinates": [ 137.396240803581463, 34.823419576768643 ] } },
{ "type": "Feature", "properties": { "fid": "way/254602423", "name": "喫茶コーラル", "high_level_category": "amenity", "category": "cafe", "known_bike_parking": "0" }, "geometry": { "type": "Point", "coordinates": [ 139.780264718656468, 35.721362174038354 ] } },
{ "type": "Feature", "properties": { "fid": "way/255365948", "name": "はづき茶屋", "high_level_category": "amenity", "category": "cafe", "known_bike_parking": "0" }, "geometry": { "type": "Point", "coordinates": [ 134.65770363316733, 34.890970586848276 ] } },
{ "type": "Feature", "properties": { "fid": "way/256604739", "name": "NEST", "high_level_category": "amenity", "category": "cafe", "known_bike_parking": "0" }, "geometry": { "type": "Point", "coordinates": [ 135.764876817934265, 35.010151294107516 ] } },
{ "type": "Feature", "properties": { "fid": "way/256614838", "name": "カフェ火裏蓮花 (Café Carirengué)", "high_level_category": "amenity", "category": "cafe", "known_bike_parking": "0" }, "geometry": { "type": "Point", "coordinates": [ 135.764314711784948, 35.010158111344943 ] } },
{ "type": "Feature", "properties": { "fid": "way/256941349", "name": "BAGEL＆BAGEL", "high_level_category": "amenity", "category": "cafe", "known_bike_parking": "0" }, "geometry": { "type": "Point", "coordinates": [ 139.741433402254671, 35.731383309505503 ] } },
{ "type": "Feature", "properties": { "fid": "way/259471964", "name": "ムツゴロー", "high_level_category": "amenity", "category": "cafe", "known_bike_parking": "0" }, "geometry": { "type": "Point", "coordinates": [ 136.16596162268354, 34.968885219966452 ] } },
{ "type": "Feature", "properties": { "fid": "way/259475117", "name": "Artnia Cafe", "high_level_category": "amenity", "category": "cafe", "known_bike_parking": "0" }, "geometry": { "type": "Point", "coordinates": [ 139.709013993070954, 35.696112242845601 ] } },
{ "type": "Feature", "properties": { "fid": "way/259516092", "name": "あさひ亭", "high_level_category": "amenity", "category": "cafe", "known_bike_parking": "0" }, "geometry": { "type": "Point", "coordinates": [ 138.87745576273096, 36.470878851297691 ] } },
{ "type": "Feature", "properties": { "fid": "way/260573389", "name": "Flat House Cafe", "high_level_category": "amenity", "category": "cafe", "known_bike_parking": "0" }, "geometry": { "type": "Point", "coordinates": [ 139.440352345812386, 35.506633578084276 ] } },
{ "type": "Feature", "properties": { "fid": "way/260576473", "name": "ベルベ", "high_level_category": "amenity", "category": "cafe", "known_bike_parking": "0" }, "geometry": { "type": "Point", "coordinates": [ 139.445290049517837, 35.509110947094086 ] } },
{ "type": "Feature", "properties": { "fid": "way/260903717", "name": "++ at ease ++", "high_level_category": "amenity", "category": "cafe", "known_bike_parking": "0" }, "geometry": { "type": "Point", "coordinates": [ 135.581824150377997, 34.68239429195129 ] } },
{ "type": "Feature", "properties": { "fid": "way/262054499", "name": "カフェ　ラ・ボエーム　mimi", "high_level_category": "amenity", "category": "cafe", "known_bike_parking": "0" }, "geometry": { "type": "Point", "coordinates": [ 138.764667797931878, 35.523971173077449 ] } },
{ "type": "Feature", "properties": { "fid": "way/263017945", "name": "喫茶花梨", "high_level_category": "amenity", "category": "cafe", "known_bike_parking": "0" }, "geometry": { "type": "Point", "coordinates": [ 135.356755070339091, 34.776171722197553 ] } },
{ "type": "Feature", "properties": { "fid": "way/264550488", "name": "杉の樹", "high_level_category": "amenity", "category": "cafe", "known_bike_parking": "0" }, "geometry": { "type": "Point", "coordinates": [ 140.640086393408581, 35.899030057819203 ] } },
{ "type": "Feature", "properties": { "fid": "way/265001928", "name": "かもがわカフェ", "high_level_category": "amenity", "category": "cafe", "known_bike_parking": "0" }, "geometry": { "type": "Point", "coordinates": [ 135.769768677175279, 35.020245646910467 ] } },
{ "type": "Feature", "properties": { "fid": "way/265147851", "name": "waraku cafe+pasta", "high_level_category": "amenity", "category": "cafe", "known_bike_parking": "0" }, "geometry": { "type": "Point", "coordinates": [ 138.310564994085979, 36.65538028555256 ] } },
{ "type": "Feature", "properties": { "fid": "way/265299777", "name": "翔天亭", "high_level_category": "amenity", "category": "cafe", "known_bike_parking": "0" }, "geometry": { "type": "Point", "coordinates": [ 139.708299, 35.6855835 ] } },
{ "type": "Feature", "properties": { "fid": "way/265892094", "name": "caffe snack 銀の風カノン", "high_level_category": "amenity", "category": "cafe", "known_bike_parking": "0" }, "geometry": { "type": "Point", "coordinates": [ 138.312472864155438, 36.655324730259245 ] } },
{ "type": "Feature", "properties": { "fid": "way/265892117", "name": "風土ピア", "high_level_category": "amenity", "category": "cafe", "known_bike_parking": "0" }, "geometry": { "type": "Point", "coordinates": [ 138.309300155924888, 36.654846775646128 ] } },
{ "type": "Feature", "properties": { "fid": "way/266307211", "name": "田中珈琲店", "high_level_category": "amenity", "category": "cafe", "known_bike_parking": "0" }, "geometry": { "type": "Point", "coordinates": [ 136.741340527107639, 35.272717163544435 ] } },
{ "type": "Feature", "properties": { "fid": "way/266551618", "name": "Komeda's caffe", "high_level_category": "amenity", "category": "cafe", "known_bike_parking": "0" }, "geometry": { "type": "Point", "coordinates": [ 136.265203994440213, 35.269867012812028 ] } },
{ "type": "Feature", "properties": { "fid": "way/268564218", "name": "ありんこ", "high_level_category": "amenity", "category": "cafe", "known_bike_parking": "0" }, "geometry": { "type": "Point", "coordinates": [ 140.7153388385683, 35.875554616914954 ] } },
{ "type": "Feature", "properties": { "fid": "way/269741661", "name": "ihana cafe", "high_level_category": "amenity", "category": "cafe", "known_bike_parking": "0" }, "geometry": { "type": "Point", "coordinates": [ 136.983381352180373, 35.162100715153976 ] } },
{ "type": "Feature", "properties": { "fid": "way/273471493", "name": "Efish", "high_level_category": "amenity", "category": "cafe", "known_bike_parking": "0" }, "geometry": { "type": "Point", "coordinates": [ 135.767373550796691, 34.995255716039154 ] } },
{ "type": "Feature", "properties": { "fid": "way/274205962", "name": "三宅商店", "high_level_category": "amenity", "category": "cafe", "known_bike_parking": "0" }, "geometry": { "type": "Point", "coordinates": [ 133.750762653678123, 34.618089929645521 ] } },
{ "type": "Feature", "properties": { "fid": "way/277169547", "name": "森のカフェ", "high_level_category": "amenity", "category": "cafe", "known_bike_parking": "0" }, "geometry": { "type": "Point", "coordinates": [ 135.762825218820865, 35.048924535597074 ] } },
{ "type": "Feature", "properties": { "fid": "way/277986090", "name": "シャンテリー", "high_level_category": "amenity", "category": "cafe", "known_bike_parking": "0" }, "geometry": { "type": "Point", "coordinates": [ 137.726324862852891, 34.709429854420442 ] } },
{ "type": "Feature", "properties": { "fid": "way/277997080", "name": "LoLo", "high_level_category": "amenity", "category": "cafe", "known_bike_parking": "0" }, "geometry": { "type": "Point", "coordinates": [ 137.726215764492764, 34.708327593297106 ] } },
{ "type": "Feature", "properties": { "fid": "way/278784641", "name": "JUNK", "high_level_category": "amenity", "category": "cafe", "known_bike_parking": "0" }, "geometry": { "type": "Point", "coordinates": [ 135.732111, 34.692198 ] } },
{ "type": "Feature", "properties": { "fid": "way/279279257", "name": "ライブラ", "high_level_category": "amenity", "category": "cafe", "known_bike_parking": "0" }, "geometry": { "type": "Point", "coordinates": [ 135.677737550909853, 35.014956449475747 ] } },
{ "type": "Feature", "properties": { "fid": "way/279552043", "name": "古時計", "high_level_category": "amenity", "category": "cafe", "known_bike_parking": "0" }, "geometry": { "type": "Point", "coordinates": [ 137.342881282411525, 34.834973967231235 ] } },
{ "type": "Feature", "properties": { "fid": "way/279669798", "name": "ままぁぱぱ", "high_level_category": "amenity", "category": "cafe", "known_bike_parking": "0" }, "geometry": { "type": "Point", "coordinates": [ 138.931741557139503, 35.585127247427835 ] } },
{ "type": "Feature", "properties": { "fid": "way/280941218", "name": "サンマルク珈琲店", "high_level_category": "amenity", "category": "cafe", "known_bike_parking": "0" }, "geometry": { "type": "Point", "coordinates": [ 135.471820770262639, 34.805902947304816 ] } },
{ "type": "Feature", "properties": { "fid": "way/282836393", "name": "オカザキ 珈琲館", "high_level_category": "amenity", "category": "cafe", "known_bike_parking": "0" }, "geometry": { "type": "Point", "coordinates": [ 135.695622737898503, 34.990255534425003 ] } },
{ "type": "Feature", "properties": { "fid": "way/283068632", "name": "農場の家", "high_level_category": "amenity", "category": "cafe", "known_bike_parking": "0" }, "geometry": { "type": "Point", "coordinates": [ 139.405729784435096, 35.531133328805232 ] } },
{ "type": "Feature", "properties": { "fid": "way/283592552", "name": "cafe de MORIKO (closed)", "high_level_category": "amenity", "category": "cafe", "known_bike_parking": "0" }, "geometry": { "type": "Point", "coordinates": [ 135.784257034726721, 35.009259769336964 ] } },
{ "type": "Feature", "properties": { "fid": "way/283812385", "name": "珈琲専門店　亜瑠普亜", "high_level_category": "amenity", "category": "cafe", "known_bike_parking": "0" }, "geometry": { "type": "Point", "coordinates": [ 136.777792831165698, 35.290166875352575 ] } },
{ "type": "Feature", "properties": { "fid": "way/285033006", "name": "快活CLUB", "high_level_category": "amenity", "category": "cafe", "known_bike_parking": "0" }, "geometry": { "type": "Point", "coordinates": [ 135.745598459603997, 34.947729195933881 ] } },
{ "type": "Feature", "properties": { "fid": "way/285040768", "name": "カフェ・ブリッジ", "high_level_category": "amenity", "category": "cafe", "known_bike_parking": "0" }, "geometry": { "type": "Point", "coordinates": [ 137.220426647373358, 36.692381107767346 ] } },
{ "type": "Feature", "properties": { "fid": "way/285894547", "name": "楽水軒", "high_level_category": "amenity", "category": "cafe", "known_bike_parking": "0" }, "geometry": { "type": "Point", "coordinates": [ 135.747462499999983, 34.9501395 ] } },
{ "type": "Feature", "properties": { "fid": "way/286362617", "name": "ムッシュー・ジー", "high_level_category": "amenity", "category": "cafe", "known_bike_parking": "0" }, "geometry": { "type": "Point", "coordinates": [ 137.208135234727791, 36.689815970119518 ] } },
{ "type": "Feature", "properties": { "fid": "way/287227427", "name": "珈琲館 前橋南部大橋店", "high_level_category": "amenity", "category": "cafe", "known_bike_parking": "0" }, "geometry": { "type": "Point", "coordinates": [ 139.065065169144873, 36.374861572858634 ] } },
{ "type": "Feature", "properties": { "fid": "way/287887033", "name": "うららか", "high_level_category": "amenity", "category": "cafe", "known_bike_parking": "0" }, "geometry": { "type": "Point", "coordinates": [ 137.366953402900862, 34.827352176561227 ] } },
{ "type": "Feature", "properties": { "fid": "way/288050256", "name": "おまち堂", "high_level_category": "amenity", "category": "cafe", "known_bike_parking": "0" }, "geometry": { "type": "Point", "coordinates": [ 133.9534665, 34.4914895 ] } },
{ "type": "Feature", "properties": { "fid": "way/289201361", "name": "チェカ", "high_level_category": "amenity", "category": "cafe", "known_bike_parking": "0" }, "geometry": { "type": "Point", "coordinates": [ 135.787231231023128, 35.013656965896594 ] } },
{ "type": "Feature", "properties": { "fid": "way/289492061", "name": "Counterpart Coffee Gallery", "high_level_category": "amenity", "category": "cafe", "known_bike_parking": "0" }, "geometry": { "type": "Point", "coordinates": [ 139.682531313617886, 35.68909743252032 ] } },
{ "type": "Feature", "properties": { "fid": "way/290087116", "name": "喫茶 南禅", "high_level_category": "shop", "category": "gift", "known_bike_parking": "0" }, "geometry": { "type": "Point", "coordinates": [ 135.787963992379673, 35.011205878546996 ] } },
{ "type": "Feature", "properties": { "fid": "way/291179070", "name": "COFFEE 松", "high_level_category": "amenity", "category": "cafe", "known_bike_parking": "0" }, "geometry": { "type": "Point", "coordinates": [ 135.788352, 35.0095935 ] } },
{ "type": "Feature", "properties": { "fid": "way/291548907", "name": "ロリアン", "high_level_category": "amenity", "category": "cafe", "known_bike_parking": "0" }, "geometry": { "type": "Point", "coordinates": [ 135.793674, 35.0143385 ] } },
{ "type": "Feature", "properties": { "fid": "way/292364017", "name": "白川カフェ", "high_level_category": "amenity", "category": "cafe", "known_bike_parking": "0" }, "geometry": { "type": "Point", "coordinates": [ 135.779612953748853, 35.008130187940381 ] } },
{ "type": "Feature", "properties": { "fid": "way/292364253", "name": "七幅神宮 京都岡崎", "high_level_category": "amenity", "category": "cafe", "known_bike_parking": "0" }, "geometry": { "type": "Point", "coordinates": [ 135.782614158423399, 35.009844879072055 ] } },
{ "type": "Feature", "properties": { "fid": "way/292402253", "name": "Cocco tree", "high_level_category": "amenity", "category": "cafe", "known_bike_parking": "0" }, "geometry": { "type": "Point", "coordinates": [ 139.875391672951622, 37.650713062339662 ] } },
{ "type": "Feature", "properties": { "fid": "way/292900160", "name": "好日居", "high_level_category": "amenity", "category": "cafe", "known_bike_parking": "0" }, "geometry": { "type": "Point", "coordinates": [ 135.783669404114193, 35.010859453823898 ] } },
{ "type": "Feature", "properties": { "fid": "way/293379219", "name": "ume*cafe WAON", "high_level_category": "amenity", "category": "cafe", "known_bike_parking": "0" }, "geometry": { "type": "Point", "coordinates": [ 140.576562598195352, 36.314256085577185 ] } },
{ "type": "Feature", "properties": { "fid": "way/293483685", "name": "ティールーム コンパス", "high_level_category": "amenity", "category": "cafe", "known_bike_parking": "0" }, "geometry": { "type": "Point", "coordinates": [ 135.483532015305229, 34.681045408402007 ] } },
{ "type": "Feature", "properties": { "fid": "way/293511115", "name": "のどかふぇ", "high_level_category": "amenity", "category": "cafe", "known_bike_parking": "0" }, "geometry": { "type": "Point", "coordinates": [ 135.788914499999976, 34.673826 ] } },
{ "type": "Feature", "properties": { "fid": "way/295385663", "name": "Cafe Takashima", "high_level_category": "amenity", "category": "cafe", "known_bike_parking": "0" }, "geometry": { "type": "Point", "coordinates": [ 134.552492108767353, 34.07214938020833 ] } },
{ "type": "Feature", "properties": { "fid": "way/295388123", "name": "YRGCAFE", "high_level_category": "amenity", "category": "cafe", "known_bike_parking": "0" }, "geometry": { "type": "Point", "coordinates": [ 134.554599723833007, 34.072149069195973 ] } },
{ "type": "Feature", "properties": { "fid": "way/295438486", "name": "chu chu churros cafe 徳島駅前店", "high_level_category": "amenity", "category": "cafe", "known_bike_parking": "0" }, "geometry": { "type": "Point", "coordinates": [ 134.549846074628505, 34.074256677079951 ] } },
{ "type": "Feature", "properties": { "fid": "way/295588180", "name": "あとりえ カフェ ...With me", "high_level_category": "amenity", "category": "cafe", "known_bike_parking": "0" }, "geometry": { "type": "Point", "coordinates": [ 135.479910646963049, 34.686908203224235 ] } },
{ "type": "Feature", "properties": { "fid": "way/295593117", "name": "ルポセ", "high_level_category": "amenity", "category": "cafe", "known_bike_parking": "0" }, "geometry": { "type": "Point", "coordinates": [ 134.555337654243147, 34.066457039738879 ] } },
{ "type": "Feature", "properties": { "fid": "way/296141731", "name": "喫茶倉ケ岳", "high_level_category": "amenity", "category": "cafe", "known_bike_parking": "0" }, "geometry": { "type": "Point", "coordinates": [ 136.643907004084753, 36.475356316909199 ] } },
{ "type": "Feature", "properties": { "fid": "way/296371334", "name": "ラビットフット", "high_level_category": "amenity", "category": "cafe", "known_bike_parking": "0" }, "geometry": { "type": "Point", "coordinates": [ 139.387428810090455, 36.13830949716985 ] } },
{ "type": "Feature", "properties": { "fid": "way/296799873", "name": "ボン喫茶店", "high_level_category": "amenity", "category": "cafe", "known_bike_parking": "0" }, "geometry": { "type": "Point", "coordinates": [ 136.748706773899471, 35.301033066165807 ] } },
{ "type": "Feature", "properties": { "fid": "way/297204242", "name": "来夢", "high_level_category": "amenity", "category": "cafe", "known_bike_parking": "0" }, "geometry": { "type": "Point", "coordinates": [ 133.006433641872434, 33.01616468634839 ] } },
{ "type": "Feature", "properties": { "fid": "way/297505801", "name": "ロング", "high_level_category": "amenity", "category": "cafe", "known_bike_parking": "0" }, "geometry": { "type": "Point", "coordinates": [ 136.83629574910853, 35.225240439960238 ] } },
{ "type": "Feature", "properties": { "fid": "way/297930094", "name": "マイルド", "high_level_category": "amenity", "category": "cafe", "known_bike_parking": "0" }, "geometry": { "type": "Point", "coordinates": [ 135.18765128434282, 35.263021214166336 ] } },
{ "type": "Feature", "properties": { "fid": "way/297955363", "name": "レストハウス", "high_level_category": "amenity", "category": "cafe", "known_bike_parking": "0" }, "geometry": { "type": "Point", "coordinates": [ 135.441057931584993, 34.542678859476112 ] } },
{ "type": "Feature", "properties": { "fid": "way/299026806", "name": "Noix", "high_level_category": "amenity", "category": "cafe", "known_bike_parking": "0" }, "geometry": { "type": "Point", "coordinates": [ 135.384305471454496, 33.73295016586632 ] } },
{ "type": "Feature", "properties": { "fid": "way/299433756", "name": "ギャラリー喫茶みづほ", "high_level_category": "amenity", "category": "cafe", "known_bike_parking": "0" }, "geometry": { "type": "Point", "coordinates": [ 139.538710180276354, 35.797942324149915 ] } },
{ "type": "Feature", "properties": { "fid": "way/301527736", "name": "竹屋", "high_level_category": "amenity", "category": "cafe", "known_bike_parking": "0" }, "geometry": { "type": "Point", "coordinates": [ 135.778491213672254, 34.968404730261092 ] } },
{ "type": "Feature", "properties": { "fid": "way/301527776", "name": "三徳亭", "high_level_category": "amenity", "category": "cafe", "known_bike_parking": "0" }, "geometry": { "type": "Point", "coordinates": [ 135.780459231198307, 34.96973544720138 ] } },
{ "type": "Feature", "properties": { "fid": "way/301527777", "name": "三玉亭", "high_level_category": "amenity", "category": "cafe", "known_bike_parking": "0" }, "geometry": { "type": "Point", "coordinates": [ 135.778889833333324, 34.970033 ] } },
{ "type": "Feature", "properties": { "fid": "way/301527778", "name": "京屋", "high_level_category": "amenity", "category": "cafe", "known_bike_parking": "0" }, "geometry": { "type": "Point", "coordinates": [ 135.779133500000029, 34.969939 ] } },
{ "type": "Feature", "properties": { "fid": "way/301527779", "name": "仁志むら亭", "high_level_category": "amenity", "category": "cafe", "known_bike_parking": "0" }, "geometry": { "type": "Point", "coordinates": [ 135.781595656766513, 34.968964916706383 ] } },
{ "type": "Feature", "properties": { "fid": "way/301527780", "name": "瓢亭", "high_level_category": "amenity", "category": "cafe", "known_bike_parking": "0" }, "geometry": { "type": "Point", "coordinates": [ 135.779831205186724, 34.969639973178616 ] } },
{ "type": "Feature", "properties": { "fid": "way/301554317", "name": "杉乃家", "high_level_category": "amenity", "category": "cafe", "known_bike_parking": "0" }, "geometry": { "type": "Point", "coordinates": [ 135.782772225450316, 34.968894419910903 ] } },
{ "type": "Feature", "properties": { "fid": "way/301949815", "name": "喫茶 ピアン", "high_level_category": "amenity", "category": "cafe", "known_bike_parking": "0" }, "geometry": { "type": "Point", "coordinates": [ 139.015053, 36.3234245 ] } },
{ "type": "Feature", "properties": { "fid": "way/302229559", "name": "カフェぶらっと", "high_level_category": "amenity", "category": "cafe", "known_bike_parking": "0" }, "geometry": { "type": "Point", "coordinates": [ 139.31180950000001, 35.30777 ] } },
{ "type": "Feature", "properties": { "fid": "way/302229613", "name": "カフェあおばと", "high_level_category": "amenity", "category": "cafe", "known_bike_parking": "0" }, "geometry": { "type": "Point", "coordinates": [ 139.311863983351401, 35.308009328990231 ] } },
{ "type": "Feature", "properties": { "fid": "way/302852219", "name": "Starbucks", "high_level_category": "amenity", "category": "cafe", "known_bike_parking": "0" }, "geometry": { "type": "Point", "coordinates": [ 135.190233965208165, 34.699823025641017 ] } },
{ "type": "Feature", "properties": { "fid": "way/303553796", "name": "夕顔亭", "high_level_category": "amenity", "category": "cafe", "known_bike_parking": "0" }, "geometry": { "type": "Point", "coordinates": [ 136.661172481244961, 36.562846827171597 ] } },
{ "type": "Feature", "properties": { "fid": "way/303715328", "name": "見城亭", "high_level_category": "shop", "category": "gift", "known_bike_parking": "0" }, "geometry": { "type": "Point", "coordinates": [ 136.66203758495584, 36.564193671643153 ] } },
{ "type": "Feature", "properties": { "fid": "way/304146702", "name": "珈琲屋 よしの", "high_level_category": "amenity", "category": "cafe", "known_bike_parking": "0" }, "geometry": { "type": "Point", "coordinates": [ 135.637506958967407, 34.718249753466353 ] } },
{ "type": "Feature", "properties": { "fid": "way/304176359", "name": "ル・ノア", "high_level_category": "amenity", "category": "cafe", "known_bike_parking": "0" }, "geometry": { "type": "Point", "coordinates": [ 140.384874957006446, 37.395833258441336 ] } },
{ "type": "Feature", "properties": { "fid": "way/304471101", "name": "カルー", "high_level_category": "amenity", "category": "cafe", "known_bike_parking": "0" }, "geometry": { "type": "Point", "coordinates": [ 135.249931500000031, 34.810912 ] } },
{ "type": "Feature", "properties": { "fid": "way/305223138", "name": "Ｃａｓｔｌｅ　Ｃｏｍｂｅ", "high_level_category": "amenity", "category": "cafe", "known_bike_parking": "0" }, "geometry": { "type": "Point", "coordinates": [ 135.481638721851766, 34.71993422321713 ] } },
{ "type": "Feature", "properties": { "fid": "way/306341219", "name": "APPLE HOUSE", "high_level_category": "amenity", "category": "cafe", "known_bike_parking": "0" }, "geometry": { "type": "Point", "coordinates": [ 139.63142040937538, 35.916125320517729 ] } },
{ "type": "Feature", "properties": { "fid": "way/306393137", "name": "ヒヨリ", "high_level_category": "amenity", "category": "cafe", "known_bike_parking": "0" }, "geometry": { "type": "Point", "coordinates": [ 136.169559657431847, 34.964042218546084 ] } },
{ "type": "Feature", "properties": { "fid": "way/307286890", "name": "喫茶　備長の郷", "high_level_category": "amenity", "category": "cafe", "known_bike_parking": "0" }, "geometry": { "type": "Point", "coordinates": [ 135.426848423280433, 33.803329089947098 ] } },
{ "type": "Feature", "properties": { "fid": "way/307566545", "name": "軽食・喫茶　ラストロ", "high_level_category": "amenity", "category": "cafe", "known_bike_parking": "0" }, "geometry": { "type": "Point", "coordinates": [ 133.34804, 34.4901595 ] } },
{ "type": "Feature", "properties": { "fid": "way/308974346", "name": "風のギャラリー", "high_level_category": "amenity", "category": "cafe", "known_bike_parking": "0" }, "geometry": { "type": "Point", "coordinates": [ 139.687412334777093, 36.721327539918953 ] } },
{ "type": "Feature", "properties": { "fid": "way/308974356", "name": "しもさか茶店", "high_level_category": "amenity", "category": "cafe", "known_bike_parking": "0" }, "geometry": { "type": "Point", "coordinates": [ 139.687730235712678, 36.720986623699417 ] } },
{ "type": "Feature", "properties": { "fid": "way/309206632", "name": "B", "high_level_category": "amenity", "category": "cafe", "known_bike_parking": "0" }, "geometry": { "type": "Point", "coordinates": [ 133.346626600923997, 34.494564684743146 ] } },
{ "type": "Feature", "properties": { "fid": "way/309677993", "name": "CoCohana", "high_level_category": "amenity", "category": "cafe", "known_bike_parking": "0" }, "geometry": { "type": "Point", "coordinates": [ 135.831334998366032, 34.677262173202614 ] } },
{ "type": "Feature", "properties": { "fid": "way/310011260", "name": "Gallery Cafe 容", "high_level_category": "amenity", "category": "cafe", "known_bike_parking": "0" }, "geometry": { "type": "Point", "coordinates": [ 135.829755740962753, 34.676833385331513 ] } },
{ "type": "Feature", "properties": { "fid": "way/310011267", "name": "カラオケ喫茶 キク", "high_level_category": "amenity", "category": "cafe", "known_bike_parking": "0" }, "geometry": { "type": "Point", "coordinates": [ 135.829511854764519, 34.676857499689874 ] } },
{ "type": "Feature", "properties": { "fid": "way/310067776", "name": "喫茶寿恵里", "high_level_category": "amenity", "category": "cafe", "known_bike_parking": "0" }, "geometry": { "type": "Point", "coordinates": [ 134.5588955, 34.062668 ] } },
{ "type": "Feature", "properties": { "fid": "way/310177257", "name": "bolik coffee", "high_level_category": "amenity", "category": "cafe", "known_bike_parking": "0" }, "geometry": { "type": "Point", "coordinates": [ 135.829662792717102, 34.676530796007718 ] } },
{ "type": "Feature", "properties": { "fid": "way/310462241", "name": "カフェ", "high_level_category": "amenity", "category": "cafe", "known_bike_parking": "0" }, "geometry": { "type": "Point", "coordinates": [ 139.619804798512973, 35.666456836517284 ] } },
{ "type": "Feature", "properties": { "fid": "way/310488296", "name": "玄米食の店のら", "high_level_category": "amenity", "category": "cafe", "known_bike_parking": "0" }, "geometry": { "type": "Point", "coordinates": [ 136.9056615, 35.142208 ] } },
{ "type": "Feature", "properties": { "fid": "way/310523622", "name": "blue note Naramachi", "high_level_category": "amenity", "category": "cafe", "known_bike_parking": "0" }, "geometry": { "type": "Point", "coordinates": [ 135.830619894835678, 34.679247937089194 ] } },
{ "type": "Feature", "properties": { "fid": "way/311519851", "name": "B", "high_level_category": "amenity", "category": "cafe", "known_bike_parking": "0" }, "geometry": { "type": "Point", "coordinates": [ 133.337621655383117, 34.494112662711238 ] } },
{ "type": "Feature", "properties": { "fid": "way/312627037", "name": "おかげ庵", "high_level_category": "amenity", "category": "cafe", "known_bike_parking": "0" }, "geometry": { "type": "Point", "coordinates": [ 136.931562873197151, 35.172772166482986 ] } },
{ "type": "Feature", "properties": { "fid": "way/312682744", "name": "桃源郷祖谷の山里", "high_level_category": "amenity", "category": "cafe", "known_bike_parking": "0" }, "geometry": { "type": "Point", "coordinates": [ 133.876195856763928, 33.863811435139574 ] } },
{ "type": "Feature", "properties": { "fid": "way/312887821", "name": "島シネマカフェ", "high_level_category": "amenity", "category": "cafe", "known_bike_parking": "0" }, "geometry": { "type": "Point", "coordinates": [ 133.529245419555394, 34.388212874216279 ] } },
{ "type": "Feature", "properties": { "fid": "way/313037018", "name": "ティー ラウンジ 彩花", "high_level_category": "amenity", "category": "cafe", "known_bike_parking": "0" }, "geometry": { "type": "Point", "coordinates": [ 135.74476803933274, 34.693407192485893 ] } },
{ "type": "Feature", "properties": { "fid": "way/313173694", "name": "抹茶 吉田園", "high_level_category": "amenity", "category": "cafe", "known_bike_parking": "0" }, "geometry": { "type": "Point", "coordinates": [ 135.829946078111078, 34.6807256392363 ] } },
{ "type": "Feature", "properties": { "fid": "way/314816685", "name": "cafe", "high_level_category": "amenity", "category": "cafe", "known_bike_parking": "0" }, "geometry": { "type": "Point", "coordinates": [ 135.198894154655193, 34.685072347466445 ] } },
{ "type": "Feature", "properties": { "fid": "way/315004112", "name": "TULLY’S COFFEE　徳島田宮店", "high_level_category": "amenity", "category": "cafe", "known_bike_parking": "0" }, "geometry": { "type": "Point", "coordinates": [ 134.542600530709308, 34.08637594222575 ] } },
{ "type": "Feature", "properties": { "fid": "way/315428138", "name": "ライフ", "high_level_category": "amenity", "category": "cafe", "known_bike_parking": "0" }, "geometry": { "type": "Point", "coordinates": [ 136.102708956667612, 35.123690518592312 ] } },
{ "type": "Feature", "properties": { "fid": "way/315891385", "name": "喫茶 & カラオケ きらら", "high_level_category": "amenity", "category": "cafe", "known_bike_parking": "0" }, "geometry": { "type": "Point", "coordinates": [ 135.538069793394357, 34.699736379943751 ] } },
{ "type": "Feature", "properties": { "fid": "way/316899095", "name": "Cafe Rosso", "high_level_category": "amenity", "category": "cafe", "known_bike_parking": "0" }, "geometry": { "type": "Point", "coordinates": [ 134.552840236363636, 34.069588605804526 ] } },
{ "type": "Feature", "properties": { "fid": "way/316899670", "name": "CAMEL", "high_level_category": "amenity", "category": "cafe", "known_bike_parking": "0" }, "geometry": { "type": "Point", "coordinates": [ 135.434912669987597, 34.766945268958771 ] } },
{ "type": "Feature", "properties": { "fid": "way/316925405", "name": "プチレスト ウッドアイビス", "high_level_category": "amenity", "category": "cafe", "known_bike_parking": "0" }, "geometry": { "type": "Point", "coordinates": [ 134.551527209960028, 34.070022864921846 ] } },
{ "type": "Feature", "properties": { "fid": "way/316942228", "name": "シャガール", "high_level_category": "amenity", "category": "cafe", "known_bike_parking": "0" }, "geometry": { "type": "Point", "coordinates": [ 134.551125488076337, 34.071412127186022 ] } },
{ "type": "Feature", "properties": { "fid": "way/317000523", "name": "可否庵", "high_level_category": "amenity", "category": "cafe", "known_bike_parking": "0" }, "geometry": { "type": "Point", "coordinates": [ 134.553810217054263, 34.070568744186048 ] } },
{ "type": "Feature", "properties": { "fid": "way/317000532", "name": "もみの木", "high_level_category": "amenity", "category": "cafe", "known_bike_parking": "0" }, "geometry": { "type": "Point", "coordinates": [ 134.553548499999977, 34.070729 ] } },
{ "type": "Feature", "properties": { "fid": "way/317138799", "name": "chu chu churros cafe", "high_level_category": "amenity", "category": "cafe", "known_bike_parking": "0" }, "geometry": { "type": "Point", "coordinates": [ 134.547588004031411, 34.070227380755355 ] } },
{ "type": "Feature", "properties": { "fid": "way/317138831", "name": "HATS ESPRESSIVO", "high_level_category": "amenity", "category": "cafe", "known_bike_parking": "0" }, "geometry": { "type": "Point", "coordinates": [ 134.5480592820428, 34.069713630833057 ] } },
{ "type": "Feature", "properties": { "fid": "way/317290473", "name": "パプア珈琲ニウギニ", "high_level_category": "amenity", "category": "cafe", "known_bike_parking": "0" }, "geometry": { "type": "Point", "coordinates": [ 139.253237229180883, 35.787152544361241 ] } },
{ "type": "Feature", "properties": { "fid": "way/317290474", "name": "Cafe ころん", "high_level_category": "amenity", "category": "cafe", "known_bike_parking": "0" }, "geometry": { "type": "Point", "coordinates": [ 139.258156656629097, 35.788582038503122 ] } },
{ "type": "Feature", "properties": { "fid": "way/319803372", "name": "SPECIALTY COFFEE SOH", "high_level_category": "amenity", "category": "cafe", "known_bike_parking": "0" }, "geometry": { "type": "Point", "coordinates": [ 137.400519657848832, 34.836955268852762 ] } },
{ "type": "Feature", "properties": { "fid": "way/320179287", "name": "梅沢商店", "high_level_category": "amenity", "category": "cafe", "known_bike_parking": "0" }, "geometry": { "type": "Point", "coordinates": [ 139.531885238797685, 36.22391897380033 ] } },
{ "type": "Feature", "properties": { "fid": "way/320585523", "name": "Tully's coffee", "high_level_category": "amenity", "category": "cafe", "known_bike_parking": "0" }, "geometry": { "type": "Point", "coordinates": [ 135.186848900251704, 34.687832514612403 ] } },
{ "type": "Feature", "properties": { "fid": "way/321978090", "name": "B", "high_level_category": "amenity", "category": "cafe", "known_bike_parking": "0" }, "geometry": { "type": "Point", "coordinates": [ 133.3304695, 34.491728 ] } },
{ "type": "Feature", "properties": { "fid": "way/322016812", "name": "心太屋", "high_level_category": "amenity", "category": "cafe", "known_bike_parking": "0" }, "geometry": { "type": "Point", "coordinates": [ 140.0777325, 35.0645545 ] } },
{ "type": "Feature", "properties": { "fid": "way/322463559", "name": "赤ドーム喫茶店アルルカン", "high_level_category": "amenity", "category": "cafe", "known_bike_parking": "0" }, "geometry": { "type": "Point", "coordinates": [ 140.468352408712036, 36.379501146681427 ] } },
{ "type": "Feature", "properties": { "fid": "way/322578559", "name": "ラ・パレット", "high_level_category": "amenity", "category": "cafe", "known_bike_parking": "0" }, "geometry": { "type": "Point", "coordinates": [ 136.661592739427761, 36.577328715622322 ] } },
{ "type": "Feature", "properties": { "fid": "way/324899317", "name": "Cafe Luce", "high_level_category": "amenity", "category": "cafe", "known_bike_parking": "0" }, "geometry": { "type": "Point", "coordinates": [ 135.827393356128397, 34.682292787564144 ] } },
{ "type": "Feature", "properties": { "fid": "way/326037256", "name": "みよし", "high_level_category": "amenity", "category": "cafe", "known_bike_parking": "0" }, "geometry": { "type": "Point", "coordinates": [ 139.376405714397038, 36.227408939996103 ] } },
{ "type": "Feature", "properties": { "fid": "way/326345604", "name": "ことぶき亭", "high_level_category": "shop", "category": "gift", "known_bike_parking": "0" }, "geometry": { "type": "Point", "coordinates": [ 136.66393200655466, 36.562576965063002 ] } },
{ "type": "Feature", "properties": { "fid": "way/326528664", "name": "内橋亭", "high_level_category": "amenity", "category": "cafe", "known_bike_parking": "0" }, "geometry": { "type": "Point", "coordinates": [ 136.6623155, 36.562589 ] } },
{ "type": "Feature", "properties": { "fid": "way/327351606", "name": "珈琲蔵人 珈蔵", "high_level_category": "amenity", "category": "cafe", "known_bike_parking": "0" }, "geometry": { "type": "Point", "coordinates": [ 135.49702618283635, 34.836583677173145 ] } },
{ "type": "Feature", "properties": { "fid": "way/327550635", "name": "喫茶店パピプペポ", "high_level_category": "amenity", "category": "cafe", "known_bike_parking": "0" }, "geometry": { "type": "Point", "coordinates": [ 139.0309585, 35.2030205 ] } },
{ "type": "Feature", "properties": { "fid": "way/327813460", "name": "快活CLUB", "high_level_category": "amenity", "category": "cafe", "known_bike_parking": "0" }, "geometry": { "type": "Point", "coordinates": [ 135.685581011165084, 34.827355812858663 ] } },
{ "type": "Feature", "properties": { "fid": "way/328712187", "name": "新潟スイーツ・ナカシマ", "high_level_category": "amenity", "category": "cafe", "known_bike_parking": "0" }, "geometry": { "type": "Point", "coordinates": [ 137.850675059713865, 37.043681629464587 ] } },
{ "type": "Feature", "properties": { "fid": "way/329487079", "name": "ひぐらし", "high_level_category": "amenity", "category": "cafe", "known_bike_parking": "0" }, "geometry": { "type": "Point", "coordinates": [ 138.015821428571428, 34.773365251700682 ] } },
{ "type": "Feature", "properties": { "fid": "way/332084821", "name": "じゃらじゃら&cafe", "high_level_category": "amenity", "category": "cafe", "known_bike_parking": "0" }, "geometry": { "type": "Point", "coordinates": [ 133.770734059971318, 34.59719184085295 ] } },
{ "type": "Feature", "properties": { "fid": "way/332084935", "name": "ウエダ喫茶", "high_level_category": "amenity", "category": "cafe", "known_bike_parking": "0" }, "geometry": { "type": "Point", "coordinates": [ 133.770473314046029, 34.597707845554076 ] } },
{ "type": "Feature", "properties": { "fid": "way/332091450", "name": "ジャズキッサアヴェニュウ", "high_level_category": "amenity", "category": "cafe", "known_bike_parking": "0" }, "geometry": { "type": "Point", "coordinates": [ 133.773928361575855, 34.596468324007006 ] } },
{ "type": "Feature", "properties": { "fid": "way/332091978", "name": "豆吉本舗", "high_level_category": "amenity", "category": "cafe", "known_bike_parking": "0" }, "geometry": { "type": "Point", "coordinates": [ 133.772061713864332, 34.595909366586213 ] } },
{ "type": "Feature", "properties": { "fid": "way/332091984", "name": "コバコーヒー", "high_level_category": "amenity", "category": "cafe", "known_bike_parking": "0" }, "geometry": { "type": "Point", "coordinates": [ 133.772067759896942, 34.594899016056559 ] } },
{ "type": "Feature", "properties": { "fid": "way/332091998", "name": "喫茶こいまり", "high_level_category": "amenity", "category": "cafe", "known_bike_parking": "0" }, "geometry": { "type": "Point", "coordinates": [ 133.771941985365061, 34.594993470083054 ] } },
{ "type": "Feature", "properties": { "fid": "way/332092056", "name": "カフェレストぎゃらりー杏", "high_level_category": "amenity", "category": "cafe", "known_bike_parking": "0" }, "geometry": { "type": "Point", "coordinates": [ 133.772383852263715, 34.595164864972197 ] } },
{ "type": "Feature", "properties": { "fid": "way/332092060", "name": "くらしき桃子", "high_level_category": "amenity", "category": "cafe", "known_bike_parking": "0" }, "geometry": { "type": "Point", "coordinates": [ 133.772046161876574, 34.595673391907219 ] } },
{ "type": "Feature", "properties": { "fid": "way/332541351", "name": "花園亭", "high_level_category": "amenity", "category": "cafe", "known_bike_parking": "0" }, "geometry": { "type": "Point", "coordinates": [ 134.045111187110564, 34.329148183253217 ] } },
{ "type": "Feature", "properties": { "fid": "way/332678078", "name": "きくや", "high_level_category": "amenity", "category": "cafe", "known_bike_parking": "0" }, "geometry": { "type": "Point", "coordinates": [ 135.807302656299839, 34.890528996772233 ] } },
{ "type": "Feature", "properties": { "fid": "way/332815838", "name": "かざみどり", "high_level_category": "amenity", "category": "cafe", "known_bike_parking": "0" }, "geometry": { "type": "Point", "coordinates": [ 139.157397196958925, 35.248142033262056 ] } },
{ "type": "Feature", "properties": { "fid": "way/332875357", "name": "対鳳庵", "high_level_category": "amenity", "category": "cafe", "known_bike_parking": "0" }, "geometry": { "type": "Point", "coordinates": [ 135.808678033244973, 34.888981548092396 ] } },
{ "type": "Feature", "properties": { "fid": "way/332875362", "name": "福寿園 宇治喫茶館", "high_level_category": "amenity", "category": "cafe", "known_bike_parking": "0" }, "geometry": { "type": "Point", "coordinates": [ 135.808689019871281, 34.889143154492025 ] } },
{ "type": "Feature", "properties": { "fid": "way/333067875", "name": "駿河屋", "high_level_category": "amenity", "category": "cafe", "known_bike_parking": "0" }, "geometry": { "type": "Point", "coordinates": [ 135.807441604145424, 34.893369356778798 ] } },
{ "type": "Feature", "properties": { "fid": "way/333067880", "name": "おちゃまん", "high_level_category": "amenity", "category": "cafe", "known_bike_parking": "0" }, "geometry": { "type": "Point", "coordinates": [ 135.807602594637558, 34.893145840490803 ] } },
{ "type": "Feature", "properties": { "fid": "way/333072700", "name": "RAKU Cafe and Gallery", "high_level_category": "amenity", "category": "cafe", "known_bike_parking": "0" }, "geometry": { "type": "Point", "coordinates": [ 135.808617710019575, 34.89198958188269 ] } },
{ "type": "Feature", "properties": { "fid": "way/334504388", "name": "古都", "high_level_category": "amenity", "category": "cafe", "known_bike_parking": "0" }, "geometry": { "type": "Point", "coordinates": [ 133.17983267290137, 34.283453034290801 ] } },
{ "type": "Feature", "properties": { "fid": "way/334660549", "name": "ペーパームーン", "high_level_category": "amenity", "category": "cafe", "known_bike_parking": "0" }, "geometry": { "type": "Point", "coordinates": [ 133.1788515, 34.285419 ] } },
{ "type": "Feature", "properties": { "fid": "way/335519419", "name": "ミヤマ珈琲 草加清門町店", "high_level_category": "amenity", "category": "cafe", "known_bike_parking": "0" }, "geometry": { "type": "Point", "coordinates": [ 139.788117087728182, 35.851700033625562 ] } },
{ "type": "Feature", "properties": { "fid": "way/337390220", "name": "城山カフェ　ボス", "high_level_category": "amenity", "category": "cafe", "known_bike_parking": "0" }, "geometry": { "type": "Point", "coordinates": [ 139.15171, 35.2512585 ] } },
{ "type": "Feature", "properties": { "fid": "way/339062028", "name": "マミ", "high_level_category": "amenity", "category": "cafe", "known_bike_parking": "0" }, "geometry": { "type": "Point", "coordinates": [ 135.7792128771801, 34.996929965201019 ] } },
{ "type": "Feature", "properties": { "fid": "way/339066772", "name": "時遊人", "high_level_category": "amenity", "category": "cafe", "known_bike_parking": "0" }, "geometry": { "type": "Point", "coordinates": [ 135.704776584644549, 34.812705837216114 ] } },
{ "type": "Feature", "properties": { "fid": "way/339184175", "name": "忠僕茶屋", "high_level_category": "amenity", "category": "cafe", "known_bike_parking": "0" }, "geometry": { "type": "Point", "coordinates": [ 135.7835545, 34.9946805 ] } },
{ "type": "Feature", "properties": { "fid": "way/339692967", "name": "HUM&Go Coffee and Stock", "high_level_category": "amenity", "category": "cafe", "known_bike_parking": "0" }, "geometry": { "type": "Point", "coordinates": [ 136.619467506830972, 36.526828819894632 ] } },
{ "type": "Feature", "properties": { "fid": "way/339856629", "name": "コメダ珈琲 南草津店", "high_level_category": "amenity", "category": "cafe", "known_bike_parking": "0" }, "geometry": { "type": "Point", "coordinates": [ 135.963964884445033, 34.995392015081151 ] } },
{ "type": "Feature", "properties": { "fid": "way/342770343", "name": "喫茶 いつここ", "high_level_category": "amenity", "category": "cafe", "known_bike_parking": "0" }, "geometry": { "type": "Point", "coordinates": [ 135.839078972705408, 34.671884321682526 ] } },
{ "type": "Feature", "properties": { "fid": "way/342931923", "name": "絵馬堂茶屋", "high_level_category": "amenity", "category": "cafe", "known_bike_parking": "0" }, "geometry": { "type": "Point", "coordinates": [ 135.843655369304571, 34.688589407673859 ] } },
{ "type": "Feature", "properties": { "fid": "way/343185577", "name": "ろくさろん", "high_level_category": "amenity", "category": "cafe", "known_bike_parking": "0" }, "geometry": { "type": "Point", "coordinates": [ 135.846281725909819, 34.676668139676615 ] } },
{ "type": "Feature", "properties": { "fid": "way/343834406", "name": "Cafe Ouest", "high_level_category": "amenity", "category": "cafe", "known_bike_parking": "0" }, "geometry": { "type": "Point", "coordinates": [ 138.944977130868239, 37.866537169336603 ] } },
{ "type": "Feature", "properties": { "fid": "way/343839821", "name": "Lotus Cafe", "high_level_category": "amenity", "category": "cafe", "known_bike_parking": "0" }, "geometry": { "type": "Point", "coordinates": [ 138.942904, 37.86543 ] } },
{ "type": "Feature", "properties": { "fid": "way/343921981", "name": "お休み処中村屋", "high_level_category": "amenity", "category": "cafe", "known_bike_parking": "0" }, "geometry": { "type": "Point", "coordinates": [ 136.855166, 35.173409 ] } },
{ "type": "Feature", "properties": { "fid": "way/343922719", "name": "休憩所いせや", "high_level_category": "amenity", "category": "cafe", "known_bike_parking": "0" }, "geometry": { "type": "Point", "coordinates": [ 136.855089, 35.174496 ] } },
{ "type": "Feature", "properties": { "fid": "way/344049729", "name": "いただき", "high_level_category": "amenity", "category": "cafe", "known_bike_parking": "0" }, "geometry": { "type": "Point", "coordinates": [ 135.731638193451829, 35.038403176925478 ] } },
{ "type": "Feature", "properties": { "fid": "way/344055393", "name": "てるてるぼうず", "high_level_category": "amenity", "category": "cafe", "known_bike_parking": "0" }, "geometry": { "type": "Point", "coordinates": [ 135.731375762034844, 35.038172314669396 ] } },
{ "type": "Feature", "properties": { "fid": "way/344132933", "name": "たねや", "high_level_category": "amenity", "category": "cafe", "known_bike_parking": "0" }, "geometry": { "type": "Point", "coordinates": [ 136.090362276794053, 35.140326337837948 ] } },
{ "type": "Feature", "properties": { "fid": "way/344610878", "name": "cafe de nature", "high_level_category": "amenity", "category": "cafe", "known_bike_parking": "0" }, "geometry": { "type": "Point", "coordinates": [ 135.837321156848674, 34.684236764899431 ] } },
{ "type": "Feature", "properties": { "fid": "way/344659799", "name": "自由空間新潟駅前店", "high_level_category": "amenity", "category": "cafe", "known_bike_parking": "0" }, "geometry": { "type": "Point", "coordinates": [ 139.059311, 37.914809 ] } },
{ "type": "Feature", "properties": { "fid": "way/345665421", "name": "カラオケ喫茶　未来", "high_level_category": "amenity", "category": "cafe", "known_bike_parking": "0" }, "geometry": { "type": "Point", "coordinates": [ 135.157580354398107, 33.88665936156012 ] } },
{ "type": "Feature", "properties": { "fid": "way/347014242", "name": "ドトールコーヒー", "high_level_category": "amenity", "category": "cafe", "known_bike_parking": "0" }, "geometry": { "type": "Point", "coordinates": [ 139.0462935, 37.921524 ] } },
{ "type": "Feature", "properties": { "fid": "way/347473729", "name": "木馬 cafe & ヨーロッパ雑貨", "high_level_category": "amenity", "category": "cafe", "known_bike_parking": "0" }, "geometry": { "type": "Point", "coordinates": [ 135.836762716398937, 34.677793915394915 ] } },
{ "type": "Feature", "properties": { "fid": "way/347638170", "name": "CAFE RoCA", "high_level_category": "amenity", "category": "cafe", "known_bike_parking": "0" }, "geometry": { "type": "Point", "coordinates": [ 139.074095944195051, 35.096733633551636 ] } },
{ "type": "Feature", "properties": { "fid": "way/350320073", "name": "おやすみ処", "high_level_category": "amenity", "category": "cafe", "known_bike_parking": "0" }, "geometry": { "type": "Point", "coordinates": [ 135.772466158478437, 35.037633743349794 ] } },
{ "type": "Feature", "properties": { "fid": "way/350516905", "name": "長崎堂", "high_level_category": "amenity", "category": "cafe", "known_bike_parking": "0" }, "geometry": { "type": "Point", "coordinates": [ 135.506921880201787, 34.595240285414036 ] } },
{ "type": "Feature", "properties": { "fid": "way/351185864", "name": "Kafuka", "high_level_category": "amenity", "category": "cafe", "known_bike_parking": "0" }, "geometry": { "type": "Point", "coordinates": [ 135.794955648925281, 35.027084549111038 ] } },
{ "type": "Feature", "properties": { "fid": "way/351185889", "name": "花ぎんかく", "high_level_category": "amenity", "category": "cafe", "known_bike_parking": "0" }, "geometry": { "type": "Point", "coordinates": [ 135.795097, 35.0273795 ] } },
{ "type": "Feature", "properties": { "fid": "way/351185890", "name": "花うさぎ", "high_level_category": "amenity", "category": "cafe", "known_bike_parking": "0" }, "geometry": { "type": "Point", "coordinates": [ 135.795862, 35.0273065 ] } },
{ "type": "Feature", "properties": { "fid": "way/351396179", "name": "喫茶宿", "high_level_category": "amenity", "category": "cafe", "known_bike_parking": "0" }, "geometry": { "type": "Point", "coordinates": [ 136.850130196078453, 35.172321250980389 ] } },
{ "type": "Feature", "properties": { "fid": "way/351990832", "name": "Aarons", "high_level_category": "amenity", "category": "cafe", "known_bike_parking": "0" }, "geometry": { "type": "Point", "coordinates": [ 134.554094880526463, 34.07067953628794 ] } },
{ "type": "Feature", "properties": { "fid": "way/355120600", "name": "エスポワール", "high_level_category": "amenity", "category": "cafe", "known_bike_parking": "0" }, "geometry": { "type": "Point", "coordinates": [ 137.717766815372613, 34.722148921861496 ] } },
{ "type": "Feature", "properties": { "fid": "way/355235643", "name": "アートコーヒー杉道", "high_level_category": "amenity", "category": "cafe", "known_bike_parking": "0" }, "geometry": { "type": "Point", "coordinates": [ 138.451627281248847, 35.003626721821476 ] } },
{ "type": "Feature", "properties": { "fid": "way/355265218", "name": "ダイトー", "high_level_category": "amenity", "category": "cafe", "known_bike_parking": "0" }, "geometry": { "type": "Point", "coordinates": [ 134.555535693197953, 34.06606727743204 ] } },
{ "type": "Feature", "properties": { "fid": "way/355598533", "name": "ポアール帝塚山本店", "high_level_category": "amenity", "category": "cafe", "known_bike_parking": "0" }, "geometry": { "type": "Point", "coordinates": [ 135.503149469535941, 34.623782969314561 ] } },
{ "type": "Feature", "properties": { "fid": "way/356306427", "name": "みなと", "high_level_category": "amenity", "category": "cafe", "known_bike_parking": "0" }, "geometry": { "type": "Point", "coordinates": [ 139.637194446632662, 35.460230356854204 ] } },
{ "type": "Feature", "properties": { "fid": "way/357627200", "name": "OLIVE", "high_level_category": "amenity", "category": "cafe", "known_bike_parking": "0" }, "geometry": { "type": "Point", "coordinates": [ 132.547972696296711, 33.263033434000356 ] } },
{ "type": "Feature", "properties": { "fid": "way/359841610", "name": "喫茶オール・イン", "high_level_category": "amenity", "category": "cafe", "known_bike_parking": "0" }, "geometry": { "type": "Point", "coordinates": [ 135.553769499999987, 34.6520425 ] } },
{ "type": "Feature", "properties": { "fid": "way/359847807", "name": "コバコーヒー", "high_level_category": "amenity", "category": "cafe", "known_bike_parking": "0" }, "geometry": { "type": "Point", "coordinates": [ 133.77387250668113, 34.596088260166127 ] } },
{ "type": "Feature", "properties": { "fid": "way/359847818", "name": "RAC COFFEE", "high_level_category": "amenity", "category": "cafe", "known_bike_parking": "0" }, "geometry": { "type": "Point", "coordinates": [ 133.769987826153965, 34.594322487707501 ] } },
{ "type": "Feature", "properties": { "fid": "way/359865313", "name": "Coffee+Bar FIDELITY", "high_level_category": "amenity", "category": "cafe", "known_bike_parking": "0" }, "geometry": { "type": "Point", "coordinates": [ 133.767584824195211, 34.6013502482866 ] } },
{ "type": "Feature", "properties": { "fid": "way/359908904", "name": "リーフ(LEAF)", "high_level_category": "amenity", "category": "cafe", "known_bike_parking": "0" }, "geometry": { "type": "Point", "coordinates": [ 133.770471166973493, 34.597798639651081 ] } },
{ "type": "Feature", "properties": { "fid": "way/360650847", "name": "喫茶和", "high_level_category": "amenity", "category": "cafe", "known_bike_parking": "0" }, "geometry": { "type": "Point", "coordinates": [ 137.027762344312123, 35.27699874644577 ] } },
{ "type": "Feature", "properties": { "fid": "way/360651875", "name": "CafeAJITO", "high_level_category": "amenity", "category": "cafe", "known_bike_parking": "0" }, "geometry": { "type": "Point", "coordinates": [ 137.028829036294326, 35.276043838945455 ] } },
{ "type": "Feature", "properties": { "fid": "way/360676470", "name": "明楽時運志風館", "high_level_category": "amenity", "category": "cafe", "known_bike_parking": "0" }, "geometry": { "type": "Point", "coordinates": [ 137.024321557709783, 35.271623738762024 ] } },
{ "type": "Feature", "properties": { "fid": "way/360990361", "name": "Cafe do Cleacendo", "high_level_category": "amenity", "category": "cafe", "known_bike_parking": "0" }, "geometry": { "type": "Point", "coordinates": [ 135.607732070030153, 34.664208117212382 ] } },
{ "type": "Feature", "properties": { "fid": "way/361127278", "name": "Amazon", "high_level_category": "amenity", "category": "cafe", "known_bike_parking": "0" }, "geometry": { "type": "Point", "coordinates": [ 135.768954432892514, 34.989417212952951 ] } },
{ "type": "Feature", "properties": { "fid": "way/362212402", "name": "むさし", "high_level_category": "amenity", "category": "cafe", "known_bike_parking": "0" }, "geometry": { "type": "Point", "coordinates": [ 136.651419697673134, 35.058738409851607 ] } },
{ "type": "Feature", "properties": { "fid": "way/362212437", "name": "喫茶プロムナード", "high_level_category": "amenity", "category": "cafe", "known_bike_parking": "0" }, "geometry": { "type": "Point", "coordinates": [ 136.644017, 35.059335 ] } },
{ "type": "Feature", "properties": { "fid": "way/362212454", "name": "まんが喫茶　オードリー桑名店", "high_level_category": "amenity", "category": "cafe", "known_bike_parking": "0" }, "geometry": { "type": "Point", "coordinates": [ 136.657156499999985, 35.058363 ] } },
{ "type": "Feature", "properties": { "fid": "way/362213617", "name": "レオポン", "high_level_category": "amenity", "category": "cafe", "known_bike_parking": "0" }, "geometry": { "type": "Point", "coordinates": [ 136.832914379272012, 35.300160765807519 ] } },
{ "type": "Feature", "properties": { "fid": "way/362225190", "name": "漫画喫茶時空", "high_level_category": "amenity", "category": "cafe", "known_bike_parking": "0" }, "geometry": { "type": "Point", "coordinates": [ 136.566829378214095, 34.561394288452547 ] } },